{"business_id": "JY576sTpB3ljay2IAajZ2w", "full_address": "2892 Broadway\nMorningside Heights\nNew York, NY 10025", "schools": ["Columbia University"], "open": true, "categories": ["Food", "Grocery", "Delis", "Restaurants"], "photo_url": "http://s3-media2.ak.yelpcdn.com/bphoto/PkHsY8-SoLvHISDqU95RDg/ms.jpg", "city": "New York", "review_count": 76, "name": "Milano Market", "neighborhoods": ["Morningside Heights"], "url": "http://www.yelp.com/biz/milano-market-new-york", "longitude": -73.965272499999998, "state": "NY", "stars": 4.0, "latitude": 40.805698, "type": "business"}
{"business_id": "EHMx2IhI-_ooHQo0N-AnHA", "full_address": "2163 Frederick Douglass Blvd\nHarlem\nNew York, NY 10026", "schools": ["Columbia University"], "open": false, "categories": ["Bars", "American (New)", "Nightlife", "Lounges", "Restaurants"], "photo_url": "http://s3-media1.ak.yelpcdn.com/assets/2/www/img/924a6444ca6c/gfx/blank_biz_medium.gif", "city": "New York", "review_count": 4, "name": "Svntn Below", "neighborhoods": ["Harlem"], "url": "http://www.yelp.com/biz/svntn-below-new-york", "longitude": -73.955135200000001, "state": "NY", "stars": 3.0, "latitude": 40.804769, "type": "business"}
{"business_id": "8lLs3dsSN-Am2_EtNfbXqA", "full_address": "2893 Broadway\nMorningside Heights\nNew York, NY 10025", "schools": ["Columbia University"], "open": true, "categories": ["Breakfast & Brunch", "American (New)", "Restaurants"], "photo_url": "http://s3-media2.ak.yelpcdn.com/bphoto/IqKj8kMJEe8nyOeIuGRpoA/ms.jpg", "city": "New York", "review_count": 346, "name": "Community Food & Juice", "neighborhoods": ["Morningside Heights"], "url": "http://www.yelp.com/biz/community-food-and-juice-new-york", "longitude": -73.965675354003906, "state": "NY", "stars": 3.5, "latitude": 40.805797576904297, "type": "business"}
{"business_id": "60f6JzTRhOyOggsjCfvh5Q", "full_address": "3141 Broadway\nHarlem\nManhattan, NY 10027", "schools": ["Columbia University"], "open": true, "categories": ["Sushi Bars", "Japanese", "Restaurants"], "photo_url": "http://s3-media1.ak.yelpcdn.com/assets/2/www/img/924a6444ca6c/gfx/blank_biz_medium.gif", "city": "Manhattan", "review_count": 6, "name": "Hana Sushi", "neighborhoods": ["Harlem"], "url": "http://www.yelp.com/biz/hana-sushi-manhattan", "longitude": -73.959834200000003, "state": "NY", "stars": 1.5, "latitude": 40.814025000000001, "type": "business"}
{"business_id": "LJuHxobQsa7lW0c1wttY2A", "full_address": "258 W 109th St\nManhattan Valley\nNew York, NY 10025", "schools": ["Columbia University"], "open": true, "categories": ["Soul Food", "Southern", "Restaurants"], "photo_url": "http://s3-media3.ak.yelpcdn.com/bphoto/myt7ACwwn0Y2aUMvkBoBfA/ms.jpg", "city": "New York", "review_count": 142, "name": "Rack & Soul", "neighborhoods": ["Manhattan Valley"], "url": "http://www.yelp.com/biz/rack-and-soul-new-york", "longitude": -73.966873000000007, "state": "NY", "stars": 3.5, "latitude": 40.803339999999999, "type": "business"}
{"business_id": "IIsJN_ilLI36zGAF3SMCCQ", "full_address": "964 Amsterdam Ave\nManhattan Valley\nManhattan, NY 10025", "schools": ["Columbia University"], "open": true, "categories": ["Italian", "Restaurants"], "photo_url": "http://s3-media1.ak.yelpcdn.com/assets/2/www/img/924a6444ca6c/gfx/blank_biz_medium.gif", "city": "Manhattan", "review_count": 6, "name": "La Piccola Cucina", "neighborhoods": ["Manhattan Valley"], "url": "http://www.yelp.com/biz/la-piccola-cucina-manhattan", "longitude": -73.965217800000005, "state": "NY", "stars": 3.5, "latitude": 40.801426300000003, "type": "business"}
{"business_id": "fFsEJQB2HhpfXV48ioxzXw", "full_address": "2104 Frederick Douglass Blvd\nHarlem\nNew York, NY 10026", "schools": ["Columbia University"], "open": false, "categories": ["Food", "Coffee & Tea", "Breakfast & Brunch", "Restaurants"], "photo_url": "http://s3-media3.ak.yelpcdn.com/bphoto/wcb9HSQxOWEex6iV53-Njg/ms.jpg", "city": "New York", "review_count": 156, "name": "Society Coffee", "neighborhoods": ["Harlem"], "url": "http://www.yelp.com/biz/society-coffee-new-york-2", "longitude": -73.956294299999996, "state": "NY", "stars": 3.5, "latitude": 40.802960200000001, "type": "business"}
{"business_id": "YRfDdBgWS4T80oJfKmVThA", "full_address": "2217-23 Frederick Douglas Blvd\nHarlem\nNew York, NY 10026", "schools": ["Columbia University"], "open": true, "categories": ["Bars", "American (New)", "Nightlife", "Lounges", "Restaurants"], "photo_url": "http://s3-media4.ak.yelpcdn.com/bphoto/1a1DruBNdnacO6iAWBGYVQ/ms.jpg", "city": "New York", "review_count": 60, "name": "Chocolat Restaurant Lounge", "neighborhoods": ["Harlem"], "url": "http://www.yelp.com/biz/chocolat-restaurant-lounge-new-york", "longitude": -73.953679199999996, "state": "NY", "stars": 3.0, "latitude": 40.806952299999999, "type": "business"}
{"business_id": "Ev04GeSgAXwKsO1qJiO9xQ", "full_address": "1346 Amsterdam Ave\nHarlem\nNew York, NY 10027", "schools": ["Columbia University"], "open": true, "categories": ["Mexican", "Restaurants"], "photo_url": "http://s3-media1.ak.yelpcdn.com/bphoto/mXyajZKJp4SmfwXKP3J2jg/ms.jpg", "city": "New York", "review_count": 18, "name": "Jesus Taco", "neighborhoods": ["Harlem"], "url": "http://www.yelp.com/biz/jesus-taco-new-york", "longitude": -73.956122399999998, "state": "NY", "stars": 2.5, "latitude": 40.813910800000002, "type": "business"}
{"business_id": "3ayb8-X8BvPyFh_E6FLyyw", "full_address": "2756 Broadway\nManhattan Valley\nNew York, NY 10025", "schools": ["Columbia University"], "open": true, "categories": ["Gastropubs", "Restaurants"], "photo_url": "http://s3-media2.ak.yelpcdn.com/bphoto/WGR7fkqsBfnHV5pUoZvrYQ/ms.jpg", "city": "New York", "review_count": 29, "name": "Five Lamps Tavern", "neighborhoods": ["Manhattan Valley"], "url": "http://www.yelp.com/biz/five-lamps-tavern-new-york", "longitude": -73.967614900000001, "state": "NY", "stars": 3.5, "latitude": 40.800929400000001, "type": "business"}
{"business_id": "aZzq3M2xwbNHNSQe2AbAOA", "full_address": "964 Amsterdam Ave\nManhattan Valley\nNew York, NY 10025", "schools": ["Columbia University"], "open": true, "categories": ["Sushi Bars", "Restaurants"], "photo_url": "http://s3-media3.ak.yelpcdn.com/bphoto/dp-c3FADQCyBwSQL7viT1w/ms.jpg", "city": "New York", "review_count": 55, "name": "Suma Sushi", "neighborhoods": ["Manhattan Valley"], "url": "http://www.yelp.com/biz/suma-sushi-new-york-2", "longitude": -73.965217800000005, "state": "NY", "stars": 3.5, "latitude": 40.801426300000003, "type": "business"}
{"business_id": "6ivIw93SATyp6Syc-_k5Eg", "full_address": "2090 Frederick Douglass Blvd\nHarlem\nNew York, NY 10026", "schools": ["Columbia University"], "open": true, "categories": ["Chicken Wings", "Restaurants"], "photo_url": "http://s3-media3.ak.yelpcdn.com/bphoto/qxv8rxZYdN-j6vxgp5m1vQ/ms.jpg", "city": "New York", "review_count": 38, "name": "Atomic Wings", "neighborhoods": ["Harlem"], "url": "http://www.yelp.com/biz/atomic-wings-new-york-9", "longitude": -73.956557700000005, "state": "NY", "stars": 2.0, "latitude": 40.802524300000002, "type": "business"}
{"business_id": "LvzfVDlvb9r0fcGXeitVKw", "full_address": "2115 Frederick Douglas Blvd\nHarlem\nNew York, NY 10026", "schools": ["Columbia University"], "open": true, "categories": ["Food", "Juice Bars & Smoothies", "African", "Restaurants"], "photo_url": "http://s3-media1.ak.yelpcdn.com/assets/2/www/img/924a6444ca6c/gfx/blank_biz_medium.gif", "city": "New York", "review_count": 9, "name": "Cafe 2115", "neighborhoods": ["Harlem"], "url": "http://www.yelp.com/biz/cafe-2115-new-york", "longitude": -73.956474999999998, "state": "NY", "stars": 2.5, "latitude": 40.803468000000002, "type": "business"}
{"business_id": "I_OPhKQDHUXHXDtFOtJCrg", "full_address": "357 W 125th St\nHarlem\nNew York, NY 10027", "schools": ["Columbia University"], "open": true, "categories": ["Pizza", "Restaurants"], "photo_url": "http://s3-media3.ak.yelpcdn.com/bphoto/oUyPERNaLD8BL0svidgzKg/ms.jpg", "city": "New York", "review_count": 18, "name": "Presidential Pizza", "neighborhoods": ["Harlem"], "url": "http://www.yelp.com/biz/presidential-pizza-new-york", "longitude": -73.952884400000002, "state": "NY", "stars": 2.5, "latitude": 40.811081600000001, "type": "business"}
{"business_id": "C2E1E0o-ssSrf_dokwxTXg", "full_address": "1239 Amsterdam Ave\nMorningside Heights\nNew York, NY 10027", "schools": ["Columbia University"], "open": true, "categories": ["African", "Ethiopian", "Restaurants"], "photo_url": "http://s3-media2.ak.yelpcdn.com/bphoto/5X-L20sxRESxELgpW_eoyQ/ms.jpg", "city": "New York", "review_count": 89, "name": "Massawa", "neighborhoods": ["Morningside Heights"], "url": "http://www.yelp.com/biz/massawa-new-york", "longitude": -73.958726299999995, "state": "NY", "stars": 3.5, "latitude": 40.809870199999999, "type": "business"}
{"business_id": "CWk6yFOoKJH5URub5XsHDg", "full_address": "248 W 106th St\nManhattan Valley\nNew York, NY 10025", "schools": ["Columbia University"], "open": true, "categories": ["Chinese", "Restaurants"], "photo_url": "http://s3-media3.ak.yelpcdn.com/bphoto/7Oz08tesM3m07ptA1nYq7A/ms.jpg", "city": "New York", "review_count": 78, "name": "East Dumpling House", "neighborhoods": ["Manhattan Valley"], "url": "http://www.yelp.com/biz/east-dumpling-house-new-york", "longitude": -73.967420000000004, "state": "NY", "stars": 3.5, "latitude": 40.800818, "type": "business"}
{"business_id": "S-xUsS4RKzBrOnAjy6lnyA", "full_address": "934 Amsterdam Ave\nManhattan Valley\nNew York, NY 10025", "schools": ["Columbia University"], "open": true, "categories": ["Delis", "Latin American", "Restaurants"], "photo_url": "http://s3-media2.ak.yelpcdn.com/bphoto/Zq0hT5fRMhBFTwyqVgxWxg/ms.jpg", "city": "New York", "review_count": 6, "name": "Acosta Antonio", "neighborhoods": ["Manhattan Valley"], "url": "http://www.yelp.com/biz/acosta-antonio-new-york", "longitude": -73.965848399999999, "state": "NY", "stars": 4.0, "latitude": 40.800253099999999, "type": "business"}
{"business_id": "p1izzP-7YomYrP2spmOrBQ", "full_address": "1213 Amsterdam Ave\nMorningside Heights\nNew York, NY 10027", "schools": ["Columbia University"], "open": true, "categories": ["Delis", "Sandwiches", "Restaurants"], "photo_url": "http://s3-media2.ak.yelpcdn.com/bphoto/3RAzdNkobwnuX6XNhxvocA/ms.jpg", "city": "New York", "review_count": 58, "name": "SubsConscious", "neighborhoods": ["Morningside Heights"], "url": "http://www.yelp.com/biz/subsconscious-new-york", "longitude": -73.959424299999995, "state": "NY", "stars": 3.0, "latitude": 40.809068000000003, "type": "business"}
{"business_id": "zzh3XNV25Fngor_E72aGWg", "full_address": "1187 Amsterdam Ave\nMorningside Heights\nNew York, NY 10027", "schools": ["Columbia University"], "open": true, "categories": ["American (Traditional)", "Chicken Wings", "Restaurants"], "photo_url": "http://s3-media4.ak.yelpcdn.com/bphoto/bf-mHVJmQX1sPlVLpui9QA/ms.jpg", "city": "New York", "review_count": 56, "name": "Haakon's Hall", "neighborhoods": ["Morningside Heights"], "url": "http://www.yelp.com/biz/haakons-hall-new-york", "longitude": -73.959776099999999, "state": "NY", "stars": 4.0, "latitude": 40.808263400000001, "type": "business"}
{"business_id": "Rt0fJK1BA9dQDWSX1usBMg", "full_address": "303 W 116th Street\nHarlem\nNew York, NY 10026", "schools": ["Columbia University"], "open": true, "categories": ["Restaurants"], "photo_url": "http://s3-media1.ak.yelpcdn.com/assets/2/www/img/924a6444ca6c/gfx/blank_biz_medium.gif", "city": "New York", "review_count": 2, "name": "New Dragon Kitchen", "neighborhoods": ["Harlem"], "url": "http://www.yelp.com/biz/new-dragon-kitchen-new-york", "longitude": -73.955770799999996, "state": "NY", "stars": 3.5, "latitude": 40.804759500000003, "type": "business"}
{"business_id": "uLWP9FVdklJXP37BsT6YIA", "full_address": "2857 Broadway\nMorningside Heights\nNew York, NY 10025", "schools": ["Columbia University"], "open": true, "categories": ["Vegetarian", "Restaurants"], "photo_url": "http://s3-media4.ak.yelpcdn.com/bphoto/Lz7I0owgqU0s4c1GmUAQyg/ms.jpg", "city": "New York", "review_count": 58, "name": "Maoz Vegetarian", "neighborhoods": ["Morningside Heights"], "url": "http://www.yelp.com/biz/maoz-vegetarian-new-york-6", "longitude": -73.966336699999999, "state": "NY", "stars": 4.0, "latitude": 40.804865300000003, "type": "business"}
{"business_id": "eCAOhaI3cKSIQUvDWd6MGQ", "full_address": "975 Columbus Ave\nManhattan Valley\nNew York, NY 10025", "schools": ["Columbia University"], "open": true, "categories": ["Food", "Coffee & Tea", "Sandwiches", "Restaurants"], "photo_url": "http://s3-media2.ak.yelpcdn.com/bphoto/MuCYKq09p8Fv8g5x9lbyuA/ms.jpg", "city": "New York", "review_count": 44, "name": "Zanny's Cafe", "neighborhoods": ["Manhattan Valley"], "url": "http://www.yelp.com/biz/zannys-cafe-new-york", "longitude": -73.961989599999995, "state": "NY", "stars": 3.5, "latitude": 40.8004423, "type": "business"}
{"business_id": "ZKKRhDiNECZKtdu9CSFz6w", "full_address": "3153 Broadway\nHarlem\nManhattan, NY 10027", "schools": ["Columbia University"], "open": true, "categories": ["Chinese", "Restaurants"], "photo_url": "http://s3-media3.ak.yelpcdn.com/bphoto/ek8fJ3xQZeqI0SdSTsrQNg/ms.jpg", "city": "Manhattan", "review_count": 5, "name": "Panda Garden Chinese Restaurant", "neighborhoods": ["Harlem"], "url": "http://www.yelp.com/biz/panda-garden-chinese-restaurant-manhattan", "longitude": -73.959418200000002, "state": "NY", "stars": 3.0, "latitude": 40.8145922, "type": "business"}
{"business_id": "ezgJKW02TGymRkmLb8zzwQ", "full_address": "256 W 109th St\nManhattan Valley\nNew York, NY 10025", "schools": ["Columbia University"], "open": true, "categories": ["Japanese", "Restaurants", "Sushi Bars", "Event Planning & Services", "Caterers"], "photo_url": "http://s3-media2.ak.yelpcdn.com/bphoto/W-CfW6BhfgAGeLWU-EhpLA/ms.jpg", "city": "New York", "review_count": 51, "name": "Saji Japan Food Enterprises", "neighborhoods": ["Manhattan Valley"], "url": "http://www.yelp.com/biz/saji-japan-food-enterprises-new-york", "longitude": -73.966433499999994, "state": "NY", "stars": 3.5, "latitude": 40.803269100000001, "type": "business"}
{"business_id": "QUNchfxuTOOmjAXkHivYdQ", "full_address": "2200 8th Ave\nHarlem\nNew York, NY 10026", "schools": ["Columbia University"], "open": true, "categories": ["Food", "Bakeries", "Breakfast & Brunch", "Restaurants"], "photo_url": "http://s3-media3.ak.yelpcdn.com/bphoto/PIg_qbQGu_hA9YMzyy6Ezg/ms.jpg", "city": "New York", "review_count": 91, "name": "Patisserie Des Ambassades", "neighborhoods": ["Harlem"], "url": "http://www.yelp.com/biz/patisserie-des-ambassades-new-york", "longitude": -73.954878800000003, "state": "NY", "stars": 3.5, "latitude": 40.805053800000003, "type": "business"}
{"business_id": "4rWJGwb3rjDoZHA0AECa5A", "full_address": "300 W 114th St\nHarlem\nNew York, NY 10026", "schools": ["Columbia University"], "open": true, "categories": ["Soul Food", "American (Traditional)", "Southern", "Restaurants"], "photo_url": "http://s3-media3.ak.yelpcdn.com/bphoto/agweV7YGdirfDwIabvx5YQ/ms.jpg", "city": "New York", "review_count": 223, "name": "Melba's", "neighborhoods": ["Harlem"], "url": "http://www.yelp.com/biz/melbas-new-york", "longitude": -73.956827899999993, "state": "NY", "stars": 3.5, "latitude": 40.803313000000003, "type": "business"}
{"business_id": "mqccXvBQsRFgB3YsgIWl5A", "full_address": "3161 Broadway\nHarlem\nNew York, NY 10027", "schools": ["Columbia University"], "open": true, "categories": ["Pizza", "Restaurants"], "photo_url": "http://s3-media3.ak.yelpcdn.com/bphoto/UCTF1bx9XNRBpRJufwobPg/ms.jpg", "city": "New York", "review_count": 21, "name": "Tom's Delicious Pizza", "neighborhoods": ["Harlem"], "url": "http://www.yelp.com/biz/toms-delicious-pizza-new-york", "longitude": -73.959097499999999, "state": "NY", "stars": 3.5, "latitude": 40.814850499999999, "type": "business"}
{"business_id": "DgHEzcSBotbfxW-IJPAMuQ", "full_address": "2895 Broadway\nMorningside Heights\nNew York, NY 10025", "schools": ["Columbia University"], "open": true, "categories": ["Korean", "Restaurants"], "photo_url": "http://s3-media4.ak.yelpcdn.com/bphoto/vSDDTvz9bQVKT66DZbdX4Q/ms.jpg", "city": "New York", "review_count": 128, "name": "Mill Korean", "neighborhoods": ["Morningside Heights"], "url": "http://www.yelp.com/biz/mill-korean-new-york", "longitude": -73.965618699999993, "state": "NY", "stars": 3.0, "latitude": 40.805995000000003, "type": "business"}
{"business_id": "bEec28P1CziowM9LrNkNsg", "full_address": "301 W 110th St\nHarlem\nNew York, NY 10025", "schools": ["Columbia University"], "open": true, "categories": ["Cafes", "American (New)", "French", "Restaurants"], "photo_url": "http://s3-media1.ak.yelpcdn.com/bphoto/UYdZirLegslj2XOxrMlfQQ/ms.jpg", "city": "New York", "review_count": 65, "name": "Cafe Amrita", "neighborhoods": ["Harlem"], "url": "http://www.yelp.com/biz/cafe-amrita-new-york", "longitude": -73.958432999999999, "state": "NY", "stars": 3.5, "latitude": 40.801053000000003, "type": "business"}
{"business_id": "TS1eYydoWdk9HwOUXhAgXg", "full_address": "116th St & Amsterdam Ave\nMorningside Heights\nManhattan, NY 10027", "schools": ["Columbia University"], "open": true, "categories": ["Food Stands", "Restaurants"], "photo_url": "http://s3-media1.ak.yelpcdn.com/assets/2/www/img/924a6444ca6c/gfx/blank_biz_medium.gif", "city": "Manhattan", "review_count": 2, "name": "Hoda Halal Cart", "neighborhoods": ["Morningside Heights"], "url": "http://www.yelp.com/biz/hoda-halal-cart-manhattan", "longitude": -73.961078599999993, "state": "NY", "stars": 4.5, "latitude": 40.806814500000002, "type": "business"}
{"business_id": "-AQJhfna4qcxfDnCGx_yLA", "full_address": "2911 Broadway\nMorningside Heights\nNew York, NY 10025", "schools": ["Columbia University"], "open": true, "categories": ["Cuban", "Restaurants"], "photo_url": "http://s3-media3.ak.yelpcdn.com/bphoto/y8U0lYkpXPySUjJIV3DpLA/ms.jpg", "city": "New York", "review_count": 219, "name": "Havana Central", "neighborhoods": ["Morningside Heights"], "url": "http://www.yelp.com/biz/havana-central-new-york-8", "longitude": -73.965067863464398, "state": "NY", "stars": 3.0, "latitude": 40.806468357172498, "type": "business"}
{"business_id": "EtHDmvirGVYBXX3kUmQQrQ", "full_address": "2072 Frederick Douglass Blvd\nHarlem\nNew York, NY 10026", "schools": ["Columbia University"], "open": true, "categories": ["American (New)", "Restaurants"], "photo_url": "http://s3-media3.ak.yelpcdn.com/bphoto/cyF-_6UzvOVq-jbd6LKSCg/ms.jpg", "city": "New York", "review_count": 89, "name": "5 & Diamond", "neighborhoods": ["Harlem"], "url": "http://www.yelp.com/biz/5-and-diamond-new-york", "longitude": -73.956846999999996, "state": "NY", "stars": 3.5, "latitude": 40.801889000000003, "type": "business"}
{"business_id": "D3Sw_VHsaQGYdQjsZDv-Nw", "full_address": "2857 Broadway\nMorningside Heights\nNew York, NY 10025", "schools": ["Columbia University"], "open": false, "categories": ["Latin American", "Restaurants"], "photo_url": "http://s3-media1.ak.yelpcdn.com/assets/2/www/img/924a6444ca6c/gfx/blank_biz_medium.gif", "city": "New York", "review_count": 12, "name": "Empanada Joe's", "neighborhoods": ["Morningside Heights"], "url": "http://www.yelp.com/biz/empanada-joes-new-york", "longitude": -73.966336200000001, "state": "NY", "stars": 1.5, "latitude": 40.804865100000001, "type": "business"}
{"business_id": "nrceacHfm6Ada7aAiTXtkg", "full_address": "353 W 125th St\nHarlem\nNew York, NY 10027", "schools": ["Columbia University"], "open": true, "categories": ["Delis", "Sandwiches", "Restaurants"], "photo_url": "http://s3-media1.ak.yelpcdn.com/bphoto/kAKxUFZPHqh1t0rV7uwSig/ms.jpg", "city": "New York", "review_count": 4, "name": "Omega Gourmet Deli", "neighborhoods": ["Harlem"], "url": "http://www.yelp.com/biz/omega-gourmet-deli-new-york", "longitude": -73.952578000000003, "state": "NY", "stars": 4.5, "latitude": 40.810930999999997, "type": "business"}
{"business_id": "PXWGgHRDcG6mxuOJTAX4uQ", "full_address": "2801 Broadway\nManhattan Valley\nNew York, NY 10025", "schools": ["Columbia University"], "open": true, "categories": ["Delis", "Restaurants"], "photo_url": "http://s3-media1.ak.yelpcdn.com/assets/2/www/img/924a6444ca6c/gfx/blank_biz_medium.gif", "city": "New York", "review_count": 5, "name": "Famous Deli", "neighborhoods": ["Manhattan Valley"], "url": "http://www.yelp.com/biz/famous-deli-new-york-3", "longitude": -73.967667399999996, "state": "NY", "stars": 4.0, "latitude": 40.802969500000003, "type": "business"}
{"business_id": "ugekAf0_3hreoD5VJQjkCg", "full_address": "1272 Amsterdam Ave\nMorningside Heights\nNew York, NY 10027", "schools": ["Columbia University"], "open": true, "categories": ["Food", "Desserts", "Breakfast & Brunch", "American (Traditional)", "Restaurants"], "photo_url": "http://s3-media2.ak.yelpcdn.com/bphoto/NHuefBTrBUbgmYMPVyg_FA/ms.jpg", "city": "New York", "review_count": 280, "name": "Kitchenette Uptown", "neighborhoods": ["Morningside Heights"], "url": "http://www.yelp.com/biz/kitchenette-uptown-new-york", "longitude": -73.957997800000001, "state": "NY", "stars": 3.5, "latitude": 40.8112347, "type": "business"}
{"business_id": "nDMnZFjvDqon5qKGMaHfVA", "full_address": "969 Amsterdam Ave\nManhattan Valley\nNew York, NY 10025", "schools": ["Columbia University"], "open": true, "categories": ["Thai", "Restaurants"], "photo_url": "http://s3-media4.ak.yelpcdn.com/bphoto/DbNKTyfK-3eWq39R4Y_THw/ms.jpg", "city": "New York", "review_count": 94, "name": "Wondee Siam V", "neighborhoods": ["Manhattan Valley"], "url": "http://www.yelp.com/biz/wondee-siam-v-new-york", "longitude": -73.964825099999999, "state": "NY", "stars": 3.5, "latitude": 40.801414700000002, "type": "business"}
{"business_id": "yQk97Xh9kBZOrE3vWFB79g", "full_address": "2857 Broadway\nMorningside Heights\nNew York, NY 10025", "schools": ["Columbia University"], "open": false, "categories": ["Restaurants"], "photo_url": "http://s3-media1.ak.yelpcdn.com/assets/2/www/img/924a6444ca6c/gfx/blank_biz_medium.gif", "city": "New York", "review_count": 4, "name": "Wrapp Factory", "neighborhoods": ["Morningside Heights"], "url": "http://www.yelp.com/biz/wrapp-factory-new-york", "longitude": -73.966575599999999, "state": "NY", "stars": 3.0, "latitude": 40.804812800000001, "type": "business"}
{"business_id": "4n4wMkDnDY7cuWOya8UumA", "full_address": "409 W 125th Street\nHarlem\nNew York, NY 10027", "schools": ["Columbia University"], "open": true, "categories": ["Pizza", "Restaurants"], "photo_url": "http://s3-media4.ak.yelpcdn.com/bphoto/NzW5Gim185yE17OgZkE0UA/ms.jpg", "city": "New York", "review_count": 10, "name": "Domino's Pizza", "neighborhoods": ["Harlem"], "url": "http://www.yelp.com/biz/dominos-pizza-new-york-5", "longitude": -73.954387600000004, "state": "NY", "stars": 2.0, "latitude": 40.811739099999997, "type": "business"}
{"business_id": "hD55NUiGDK7STQ8oy9QDPA", "full_address": "2885 Broadway\nMorningside Heights\nNew York, NY 10025", "schools": ["Columbia University"], "open": true, "categories": ["French", "Restaurants"], "photo_url": "http://s3-media1.ak.yelpcdn.com/bphoto/-Oep52VPOUuE-v5karp8kg/ms.jpg", "city": "New York", "review_count": 170, "name": "Le Monde", "neighborhoods": ["Morningside Heights"], "url": "http://www.yelp.com/biz/le-monde-new-york-3", "longitude": -73.965880200000001, "state": "NY", "stars": 3.0, "latitude": 40.8057564, "type": "business"}
{"business_id": "SvuJs-3p4H3FZaoF3K3y3g", "full_address": "973 Amsterdam Ave\nManhattan Valley\nNew York, NY 10025", "schools": ["Columbia University"], "open": true, "categories": ["Latin American", "Restaurants"], "photo_url": "http://s3-media4.ak.yelpcdn.com/bphoto/uMvnmTYi-HqyeSVhrh2_iA/ms.jpg", "city": "New York", "review_count": 10, "name": "El Rey De La Caridad", "neighborhoods": ["Manhattan Valley"], "url": "http://www.yelp.com/biz/el-rey-de-la-caridad-new-york", "longitude": -73.964871299999999, "state": "NY", "stars": 4.0, "latitude": 40.801589, "type": "business"}
{"business_id": "sqkSG2pAisfCfgtfkig2xw", "full_address": "435 W 125th St\nHarlem\nNew York, NY 10027", "schools": ["Columbia University"], "open": true, "categories": ["Bars", "African", "Ethiopian", "Nightlife", "Restaurants"], "photo_url": "http://s3-media4.ak.yelpcdn.com/bphoto/rguy43FajqTwbunqPMUXkA/ms.jpg", "city": "New York", "review_count": 4, "name": "Cafe Addis", "neighborhoods": ["Harlem"], "url": "http://www.yelp.com/biz/cafe-addis-new-york", "longitude": -73.955198600000003, "state": "NY", "stars": 3.0, "latitude": 40.812401100000002, "type": "business"}
{"business_id": "1Ps3-IJycqFpR0uyii2HRQ", "full_address": "254 W 108th St\nManhattan Valley\nManhattan, NY 10025", "schools": ["Columbia University"], "open": true, "categories": ["Vietnamese", "Sandwiches", "Restaurants"], "photo_url": "http://s3-media3.ak.yelpcdn.com/bphoto/5f283BpLkxoUnN19KTpfyA/ms.jpg", "city": "Manhattan", "review_count": 36, "name": "Quick & Quality Sandwich", "neighborhoods": ["Manhattan Valley"], "url": "http://www.yelp.com/biz/quick-and-quality-sandwich-manhattan", "longitude": -73.967048199999994, "state": "NY", "stars": 4.0, "latitude": 40.8026871, "type": "business"}
{"business_id": "ahr0chRA-xpmq2xV_gnb3w", "full_address": "1268 Amsterdam Ave\nMorningside Heights\nNew York, NY 10027", "schools": ["Columbia University"], "open": false, "categories": ["Restaurants", "Japanese", "Vietnamese"], "photo_url": "http://s3-media3.ak.yelpcdn.com/bphoto/0I1ruthnSKqi2KZW3q5sBw/ms.jpg", "city": "New York", "review_count": 57, "name": "Saga", "neighborhoods": ["Morningside Heights"], "url": "http://www.yelp.com/biz/saga-new-york-4", "longitude": -73.958314000000001, "state": "NY", "stars": 3.0, "latitude": 40.811107, "type": "business"}
{"business_id": "khYxvvCKRiR-wqMSbFzFmg", "full_address": "1231 Amsterdam Ave\nMorningside Heights\nNew York, NY 10027", "schools": ["Columbia University"], "open": true, "categories": ["Italian", "Sandwiches", "Restaurants"], "photo_url": "http://s3-media4.ak.yelpcdn.com/bphoto/wb0Cirh1cxYtQLPCPLrg3w/ms.jpg", "city": "New York", "review_count": 50, "name": "Panino Sportivo Roma", "neighborhoods": ["Morningside Heights"], "url": "http://www.yelp.com/biz/panino-sportivo-roma-new-york", "longitude": -73.958731299999997, "state": "NY", "stars": 3.5, "latitude": 40.809705800000003, "type": "business"}
{"business_id": "Rx3m7vtf-eWBSQ4AavQl8g", "full_address": "1345 Amsterdam Ave\nHarlem\nNew York, NY 10027", "schools": ["Columbia University"], "open": true, "categories": ["Food", "Coffee & Tea", "Breakfast & Brunch", "Restaurants"], "photo_url": "http://s3-media1.ak.yelpcdn.com/bphoto/qkeODpjArvi16FbRrx0sUA/ms.jpg", "city": "New York", "review_count": 3, "name": "Jimbo's Coffee Shop", "neighborhoods": ["Harlem"], "url": "http://www.yelp.com/biz/jimbos-coffee-shop-new-york", "longitude": -73.955775000000003, "state": "NY", "stars": 3.5, "latitude": 40.813600000000001, "type": "business"}
{"business_id": "UWGlfeD5n8GbASXPBztVIQ", "full_address": "431 W 121st St\nMorningside Heights\nNew York, NY 10027", "schools": ["Columbia University"], "open": false, "categories": ["Food", "Coffee & Tea", "Sandwiches", "Restaurants"], "photo_url": "http://s3-media1.ak.yelpcdn.com/bphoto/H4UbhTwtrI_yB67uQHDi6g/ms.jpg", "city": "New York", "review_count": 23, "name": "Cafe Fresh", "neighborhoods": ["Morningside Heights"], "url": "http://www.yelp.com/biz/cafe-fresh-new-york", "longitude": -73.958439999999996, "state": "NY", "stars": 3.0, "latitude": 40.809916000000001, "type": "business"}
{"business_id": "tz_BWXOSswOpActxGCPBkw", "full_address": "271 W 119th St\nHarlem\nNew York, NY 10026", "schools": ["Columbia University"], "open": false, "categories": ["Moroccan", "Restaurants"], "photo_url": "http://s3-media3.ak.yelpcdn.com/bphoto/RaCg9ulipeieMS3sO8db-w/ms.jpg", "city": "New York", "review_count": 2, "name": "Elle & Lui", "neighborhoods": ["Harlem"], "url": "http://www.yelp.com/biz/elle-and-lui-new-york", "longitude": -73.953175400000006, "state": "NY", "stars": 3.0, "latitude": 40.806143400000003, "type": "business"}
{"business_id": "GDELvDNJGYooK__jXu6foA", "full_address": "2217-23 Frederick Douglass Blvd.\nHarlem\nNew York, NY 10026", "schools": ["Columbia University"], "open": true, "categories": ["International", "American (New)", "Nightlife", "Restaurants"], "photo_url": "http://s3-media2.ak.yelpcdn.com/bphoto/tD0OfUZLoqOQVwkYLODLbg/ms.jpg", "city": "New York", "review_count": 13, "name": "Chocolat Lounge", "neighborhoods": ["Harlem"], "url": "http://www.yelp.com/biz/chocolat-lounge-new-york", "longitude": -73.953742500000004, "state": "NY", "stars": 2.5, "latitude": 40.8066782, "type": "business"}
{"business_id": "b2d8CP6sKQotFjzZX0Thtw", "full_address": "2076 8th Ave\nHarlem\nNew York, NY 10026", "schools": ["Columbia University"], "open": true, "categories": ["Chinese", "Restaurants"], "photo_url": "http://s3-media3.ak.yelpcdn.com/bphoto/hw-BnltS8FYkvrqeYrTABQ/ms.jpg", "city": "New York", "review_count": 2, "name": "Szechuan Garden Kitchen", "neighborhoods": ["Harlem"], "url": "http://www.yelp.com/biz/szechuan-garden-kitchen-new-york", "longitude": -73.956872000000004, "state": "NY", "stars": 3.5, "latitude": 40.802109199999997, "type": "business"}
{"business_id": "DMXkPjaKCMQjNB-_Ll5geQ", "full_address": "951 Amsterdam Ave\nManhattan Valley\nNew York, NY 10025", "schools": ["Columbia University"], "open": true, "categories": ["Mexican", "Restaurants"], "photo_url": "http://s3-media2.ak.yelpcdn.com/bphoto/FpjEl-ReCPZfK3OnXjwDLA/ms.jpg", "city": "New York", "review_count": 90, "name": "Blockheads", "neighborhoods": ["Manhattan Valley"], "url": "http://www.yelp.com/biz/blockheads-new-york-5", "longitude": -73.965063000000001, "state": "NY", "stars": 3.0, "latitude": 40.800753999999998, "type": "business"}
{"business_id": "xBF3jvTc5knr9RvtV4mOWA", "full_address": "301 West 110th Street\nHarlem\nNew York, NY 10026", "schools": ["Columbia University"], "open": true, "categories": ["Pizza", "Restaurants"], "photo_url": "http://s3-media1.ak.yelpcdn.com/bphoto/xpfoJ1zhGGr18E-vePvNoQ/ms.jpg", "city": "New York", "review_count": 8, "name": "Papa John's Pizza", "neighborhoods": ["Harlem"], "url": "http://www.yelp.com/biz/papa-johns-pizza-new-york-3", "longitude": -73.958432999999999, "state": "NY", "stars": 2.5, "latitude": 40.801053000000003, "type": "business"}
{"business_id": "KgfFn5Z51DZoUzhJ186a0A", "full_address": "2791 Broadway\nManhattan Valley\nNew York, NY 10025", "schools": ["Columbia University"], "open": true, "categories": ["Indian", "Restaurants"], "photo_url": "http://s3-media1.ak.yelpcdn.com/bphoto/YovM8XEnUiVKDnAogyPG1Q/ms.jpg", "city": "New York", "review_count": 80, "name": "Indian Cafe", "neighborhoods": ["Manhattan Valley"], "url": "http://www.yelp.com/biz/indian-cafe-new-york-2", "longitude": -73.968035499999999, "state": "NY", "stars": 3.5, "latitude": 40.802762000000001, "type": "business"}
{"business_id": "OrCXDG0nyWd3mjrodikI8Q", "full_address": "2814 Broadway\nManhattan Valley\nNew York, NY 10025", "schools": ["Columbia University"], "open": true, "categories": ["Delis", "Restaurants"], "photo_url": "http://s3-media3.ak.yelpcdn.com/bphoto/OiLJ744Cz6JMwZbmn0lA9g/ms.jpg", "city": "New York", "review_count": 10, "name": "Crystal Gourmet", "neighborhoods": ["Manhattan Valley"], "url": "http://www.yelp.com/biz/crystal-gourmet-new-york", "longitude": -73.966507699999994, "state": "NY", "stars": 3.0, "latitude": 40.804250400000001, "type": "business"}
{"business_id": "vZ5-JXlJS75k8wmPNS5U5w", "full_address": "1274 Amsterdam Ave\nMorningside Heights\nNew York, NY 10027", "schools": ["Columbia University"], "open": true, "categories": ["Italian", "Restaurants"], "photo_url": "http://s3-media3.ak.yelpcdn.com/bphoto/LF1O7OkUABAUp82cDpbbQg/ms.jpg", "city": "New York", "review_count": 190, "name": "Max Soha", "neighborhoods": ["Morningside Heights"], "url": "http://www.yelp.com/biz/max-soha-new-york", "longitude": -73.957837499999997, "state": "NY", "stars": 4.0, "latitude": 40.811199000000002, "type": "business"}
{"business_id": "U7UVERrPVvLJ8HN6TI92DQ", "full_address": "2896 Broadway\nMorningside Heights\nNew York, NY 10025", "schools": ["Columbia University"], "open": true, "categories": ["Diners", "Restaurants"], "photo_url": "http://s3-media4.ak.yelpcdn.com/bphoto/XXNdLihiMk828-xabTrQAQ/ms.jpg", "city": "New York", "review_count": 169, "name": "Deluxe on Broadway", "neighborhoods": ["Morningside Heights"], "url": "http://www.yelp.com/biz/deluxe-on-broadway-new-york", "longitude": -73.9652083, "state": "NY", "stars": 3.0, "latitude": 40.805809799999999, "type": "business"}
{"business_id": "g8vu1G_fZLrPpGf2UHk6-Q", "full_address": "990 Columbus Ave\nManhattan Valley\nNew York, NY 10025", "schools": ["Columbia University"], "open": true, "categories": ["Breakfast & Brunch", "Creperies", "French", "Restaurants"], "photo_url": "http://s3-media3.ak.yelpcdn.com/bphoto/gRsHPOUEFLQGGAqXkxwANA/ms.jpg", "city": "New York", "review_count": 203, "name": "Crepes on Columbus", "neighborhoods": ["Manhattan Valley"], "url": "http://www.yelp.com/biz/crepes-on-columbus-new-york", "longitude": -73.961768000000006, "state": "NY", "stars": 4.0, "latitude": 40.801074499999999, "type": "business"}
{"business_id": "vQTMu1jkFZUIkb_EmYPa9w", "full_address": "1028 Amsterdam Ave\nMorningside Heights\nNew York, NY 10025", "schools": ["Columbia University"], "open": true, "categories": ["Mexican", "Restaurants"], "photo_url": "http://s3-media3.ak.yelpcdn.com/bphoto/efklFXtk2Ffn06Qc83rV_w/ms.jpg", "city": "New York", "review_count": 22, "name": "Cinco De Mayo Restaurant", "neighborhoods": ["Morningside Heights"], "url": "http://www.yelp.com/biz/cinco-de-mayo-restaurant-new-york", "longitude": -73.963848999999996, "state": "NY", "stars": 2.5, "latitude": 40.803635, "type": "business"}
{"business_id": "2m5gtNQnTgKchpFK6ZiOOg", "full_address": "1172 Amsterdam Ave\n300 Avery Hall\nMorningside Heights\nNew York, NY 10027", "schools": ["Columbia University"], "open": true, "categories": ["Sandwiches", "Restaurants"], "photo_url": "http://s3-media3.ak.yelpcdn.com/bphoto/xogze_bp524opwjnP5B_Zg/ms.jpg", "city": "New York", "review_count": 17, "name": "Brownie's Cafe", "neighborhoods": ["Morningside Heights"], "url": "http://www.yelp.com/biz/brownies-cafe-new-york", "longitude": -73.9606979, "state": "NY", "stars": 4.0, "latitude": 40.807361700000001, "type": "business"}
{"business_id": "xGos8tSzLwO3J8mEk3z_2A", "full_address": "973 Columbus Ave\nManhattan Valley\nNew York, NY 10025", "schools": ["Columbia University"], "open": true, "categories": ["Cafes", "French", "Restaurants"], "photo_url": "http://s3-media3.ak.yelpcdn.com/bphoto/21PQfOfpkXH1ukrjNQIGWQ/ms.jpg", "city": "New York", "review_count": 129, "name": "A Cafe New York", "neighborhoods": ["Manhattan Valley"], "url": "http://www.yelp.com/biz/a-cafe-new-york-new-york-2", "longitude": -73.962444899999994, "state": "NY", "stars": 4.0, "latitude": 40.799574200000002, "type": "business"}
{"business_id": "AeFCye5vFfyJzlKngrzrNA", "full_address": "2955 Broadway\nMorningside Heights\nNew York, NY 10025", "schools": ["Columbia University"], "open": false, "categories": ["Korean", "Vietnamese", "Thai", "Japanese", "Restaurants"], "photo_url": "http://s3-media3.ak.yelpcdn.com/bphoto/aMABoyy_y0UQrdbB_Ib9Ng/ms.jpg", "city": "New York", "review_count": 46, "name": "Caffe Swish", "neighborhoods": ["Morningside Heights"], "url": "http://www.yelp.com/biz/caffe-swish-new-york", "longitude": -73.964086300000005, "state": "NY", "stars": 2.5, "latitude": 40.8076042, "type": "business"}
{"business_id": "JCeKdD3GcqEiIpS1hGTqlQ", "full_address": "601 W 114th St\nMorningside Heights\nNew York, NY 10025", "schools": ["Columbia University"], "open": true, "categories": ["Mexican", "Restaurants"], "photo_url": "http://s3-media3.ak.yelpcdn.com/bphoto/LY06bTWDgWapVPtoRcdYgQ/ms.jpg", "city": "New York", "review_count": 5, "name": "Local Flavor Burrito Shop", "neighborhoods": ["Morningside Heights"], "url": "http://www.yelp.com/biz/local-flavor-burrito-shop-new-york", "longitude": -73.964942199999996, "state": "NY", "stars": 3.0, "latitude": 40.806762499999998, "type": "business"}
{"business_id": "BQcgpQxUM39PMO_YDl_CqA", "full_address": "993 Columbus Ave\nManhattan Valley\nNew York, NY 10025", "schools": ["Columbia University"], "open": true, "categories": ["Soul Food", "Caribbean", "Restaurants"], "photo_url": "http://s3-media2.ak.yelpcdn.com/bphoto/uJSUQFyiJj6Q6ekg0YvWpg/ms.jpg", "city": "New York", "review_count": 100, "name": "Freda's Caribbean & Soul Cuisine", "neighborhoods": ["Manhattan Valley"], "url": "http://www.yelp.com/biz/fredas-caribbean-and-soul-cuisine-new-york", "longitude": -73.961258999999998, "state": "NY", "stars": 4.0, "latitude": 40.800871000000001, "type": "business"}
{"business_id": "bWasMbk9JZLQLQf_EUr2Sg", "full_address": "1207 Amsterdam Ave\nMorningside Heights\nNew York, NY 10027", "schools": ["Columbia University"], "open": true, "categories": ["Bars", "American (New)", "Nightlife", "Lounges", "Restaurants"], "photo_url": "http://s3-media4.ak.yelpcdn.com/bphoto/LuxuXOMAist2P31OTL5O2Q/ms.jpg", "city": "New York", "review_count": 95, "name": "Amsterdam Restaurant & Tapas Lounge", "neighborhoods": ["Morningside Heights"], "url": "http://www.yelp.com/biz/amsterdam-restaurant-and-tapas-lounge-new-york-3", "longitude": -73.959331199999994, "state": "NY", "stars": 3.0, "latitude": 40.808880199999997, "type": "business"}
{"business_id": "Zgf2Thpp7LeYE_Bg0QDzDg", "full_address": "2888 Broadway\nMorningside Heights\nNew York, NY 10025", "schools": ["Columbia University"], "open": false, "categories": ["Restaurants"], "photo_url": "http://s3-media1.ak.yelpcdn.com/assets/2/www/img/924a6444ca6c/gfx/blank_biz_medium.gif", "city": "New York", "review_count": 10, "name": "Pertutti Cafe", "neighborhoods": ["Morningside Heights"], "url": "http://www.yelp.com/biz/pertutti-cafe-new-york", "longitude": -73.965279899999999, "state": "NY", "stars": 1.5, "latitude": 40.805601000000003, "type": "business"}
{"business_id": "Ftu5JVoK5JEZAc-YABU0oQ", "full_address": "1237 Amsterdam Ave\nMorningside Heights\nNew York, NY 10027", "schools": ["Columbia University"], "open": true, "categories": ["Pakistani", "Indian", "Restaurants"], "photo_url": "http://s3-media1.ak.yelpcdn.com/bphoto/04dGU-Wr8quCHhkqTJvbrA/ms.jpg", "city": "New York", "review_count": 45, "name": "Ajanta", "neighborhoods": ["Morningside Heights"], "url": "http://www.yelp.com/biz/ajanta-new-york", "longitude": -73.958851100000004, "state": "NY", "stars": 2.5, "latitude": 40.8098709, "type": "business"}
{"business_id": "VAkdznBlCPQ7KFvm-Kma0g", "full_address": "3157 Broadway\nHarlem\nNew York, NY 10027", "schools": ["Columbia University"], "open": true, "categories": ["Bars", "American (New)", "Nightlife", "Restaurants"], "photo_url": "http://s3-media3.ak.yelpcdn.com/bphoto/1Au25qi9uBeNSTas4Moqhg/ms.jpg", "city": "New York", "review_count": 136, "name": "Toast", "neighborhoods": ["Harlem"], "url": "http://www.yelp.com/biz/toast-new-york-6", "longitude": -73.959293599999995, "state": "NY", "stars": 3.5, "latitude": 40.814771899999997, "type": "business"}
{"business_id": "Ki2-LougDEv34G5EY1sz4g", "full_address": "953 Amsterdam Ave\nManhattan Valley\nNew York, NY 10025", "schools": ["Columbia University"], "open": true, "categories": ["Latin American", "Caribbean", "Restaurants"], "photo_url": "http://s3-media4.ak.yelpcdn.com/bphoto/IVJ5_2SgliqfDVsCfC9QFA/ms.jpg", "city": "New York", "review_count": 26, "name": "Tropical Sensation Restaurant", "neighborhoods": ["Manhattan Valley"], "url": "http://www.yelp.com/biz/tropical-sensation-restaurant-new-york", "longitude": -73.965024999999997, "state": "NY", "stars": 3.5, "latitude": 40.800818, "type": "business"}
{"business_id": "VrlIP1YgXwvCQlQ1PTExkg", "full_address": "2224 Frederick Douglass Blvd.\nHarlem\nNew York, NY 10026", "schools": ["Columbia University"], "open": true, "categories": ["Italian", "Pizza", "Restaurants"], "photo_url": "http://s3-media3.ak.yelpcdn.com/bphoto/x_ZZjxe8FRZPioy17Uyzjg/ms.jpg", "city": "New York", "review_count": 66, "name": "Bad Horse Pizza", "neighborhoods": ["Harlem"], "url": "http://www.yelp.com/biz/bad-horse-pizza-new-york", "longitude": -73.953548499999997, "state": "NY", "stars": 3.5, "latitude": 40.806883900000003, "type": "business"}
{"business_id": "yw2yc4OlDDf-5g9DcUtpuw", "full_address": "525 W 120th St\nMorningside Heights\nNew York, NY 10027", "schools": ["Columbia University"], "open": true, "categories": ["Food Stands", "Restaurants"], "photo_url": "http://s3-media3.ak.yelpcdn.com/bphoto/dLQTd40jXm0ZcU-1IFc5VQ/ms.jpg", "city": "New York", "review_count": 12, "name": "Grace Dodge Cafe", "neighborhoods": ["Morningside Heights"], "url": "http://www.yelp.com/biz/grace-dodge-cafe-new-york", "longitude": -73.959258899999995, "state": "NY", "stars": 3.0, "latitude": 40.809566500000003, "type": "business"}
{"business_id": "yo_WAOnE2pPHCQduq_V_ZA", "full_address": "544 W 113th St\nMorningside Heights\nNew York, NY 10025", "schools": ["Columbia University"], "open": true, "categories": ["Greek", "Mediterranean", "Restaurants"], "photo_url": "http://s3-media3.ak.yelpcdn.com/bphoto/O1D7ZHNw4Yu4LBTIE-xP2w/ms.jpg", "city": "New York", "review_count": 72, "name": "Symposium Greek Restaurant", "neighborhoods": ["Morningside Heights"], "url": "http://www.yelp.com/biz/symposium-greek-restaurant-new-york", "longitude": -73.964381299999999, "state": "NY", "stars": 3.5, "latitude": 40.805628499999997, "type": "business"}
{"business_id": "K-wyXXi5lPM2cwaV9_vXcQ", "full_address": "1090 Amsterdam Ave\nMorningside Heights\nNew York, NY 10025", "schools": ["Columbia University"], "open": true, "categories": ["Greek", "Delis", "Pizza", "Restaurants"], "photo_url": "http://s3-media2.ak.yelpcdn.com/bphoto/_zy6XcN3ILmBLl7D7tQytA/ms.jpg", "city": "New York", "review_count": 32, "name": "Strokos Gourmet Deli", "neighborhoods": ["Morningside Heights"], "url": "http://www.yelp.com/biz/strokos-gourmet-deli-new-york", "longitude": -73.9621317, "state": "NY", "stars": 3.0, "latitude": 40.805354800000003, "type": "business"}
{"business_id": "PQrCluMVsWTGvloynpKBog", "full_address": "936 Amsterdam Ave\nManhattan Valley\nManhattan, NY 10025", "schools": ["Columbia University"], "open": false, "categories": ["American (New)", "Restaurants"], "photo_url": "http://s3-media1.ak.yelpcdn.com/bphoto/jsRHZ4tqmip18oWlFvkCJQ/ms.jpg", "city": "Manhattan", "review_count": 32, "name": "The Neighborhood", "neighborhoods": ["Manhattan Valley"], "url": "http://www.yelp.com/biz/the-neighborhood-manhattan-2", "longitude": -73.965906000000004, "state": "NY", "stars": 3.5, "latitude": 40.800713999999999, "type": "business"}
{"business_id": "nGgdoc8XIYYb055OIu4SgQ", "full_address": "2800 Broadway\nManhattan Valley\nNew York, NY 10025", "schools": ["Columbia University"], "open": true, "categories": ["Diners", "Restaurants"], "photo_url": "http://s3-media3.ak.yelpcdn.com/bphoto/cWu5HDLuUusrV458EJaoYg/ms.jpg", "city": "New York", "review_count": 22, "name": "Westway Cafe", "neighborhoods": ["Manhattan Valley"], "url": "http://www.yelp.com/biz/westway-cafe-new-york", "longitude": -73.967294199999998, "state": "NY", "stars": 3.0, "latitude": 40.802886299999997, "type": "business"}
{"business_id": "LdHt0nc2RJ6BBvR0itYNpg", "full_address": "2893 Broadway\nMorningside Heights\nNew York, NY 10025", "schools": ["Columbia University"], "open": false, "categories": ["Bars", "Mexican", "Nightlife", "Restaurants"], "photo_url": "http://s3-media1.ak.yelpcdn.com/assets/2/www/img/924a6444ca6c/gfx/blank_biz_medium.gif", "city": "New York", "review_count": 5, "name": "Nacho's Kitchen", "neighborhoods": ["Morningside Heights"], "url": "http://www.yelp.com/biz/nachos-kitchen-new-york", "longitude": -73.965739400000004, "state": "NY", "stars": 2.0, "latitude": 40.805904599999998, "type": "business"}
{"business_id": "L7J7eDgJTIctG8JzvMooMw", "full_address": "2168 Frederick Douglass Blvd\nHarlem\nNew York, NY 10026", "schools": ["Columbia University"], "open": false, "categories": ["Italian", "Restaurants"], "photo_url": "http://s3-media2.ak.yelpcdn.com/bphoto/pzagq79hezbGL396AG5W3Q/ms.jpg", "city": "New York", "review_count": 23, "name": "Frizzante", "neighborhoods": ["Harlem"], "url": "http://www.yelp.com/biz/frizzante-new-york", "longitude": -73.954881700000001, "state": "NY", "stars": 2.5, "latitude": 40.805055099999997, "type": "business"}
{"business_id": "Y2I946V78wOdwaUD9chmqg", "full_address": "994 Amsterdam Ave\nManhattan Valley\nNew York, NY 10025", "schools": ["Columbia University"], "open": true, "categories": ["Indian", "Restaurants"], "photo_url": "http://s3-media1.ak.yelpcdn.com/bphoto/qyJRbsFfI0Xqm3oQLbMPKQ/ms.jpg", "city": "New York", "review_count": 159, "name": "Roti Roll - Bombay Frankie", "neighborhoods": ["Manhattan Valley"], "url": "http://www.yelp.com/biz/roti-roll-bombay-frankie-new-york", "longitude": -73.9641953, "state": "NY", "stars": 4.0, "latitude": 40.802517399999999, "type": "business"}
{"business_id": "5dzFMuClH9CDvfaUuIKWeg", "full_address": "1003 Columbus Ave\nSte A\nManhattan Valley\nNew York, NY 10025", "schools": ["Columbia University"], "open": true, "categories": ["Chinese", "Restaurants"], "photo_url": "http://s3-media1.ak.yelpcdn.com/assets/2/www/img/924a6444ca6c/gfx/blank_biz_medium.gif", "city": "New York", "review_count": 3, "name": "Hunan's Kitchen", "neighborhoods": ["Manhattan Valley"], "url": "http://www.yelp.com/biz/hunans-kitchen-new-york", "longitude": -73.9611369, "state": "NY", "stars": 3.5, "latitude": 40.801364599999999, "type": "business"}
{"business_id": "IRQmUno4GQMvEDifCXO-cw", "full_address": "3141 Broadway\nHarlem\nNew York, NY 10027", "schools": ["Columbia University"], "open": true, "categories": ["Japanese", "Chinese", "Restaurants"], "photo_url": "http://s3-media2.ak.yelpcdn.com/bphoto/kjlcbZGv76IK87KFLYNYvA/ms.jpg", "city": "New York", "review_count": 27, "name": "China Place", "neighborhoods": ["Harlem"], "url": "http://www.yelp.com/biz/china-place-new-york", "longitude": -73.959707300000005, "state": "NY", "stars": 2.0, "latitude": 40.813994399999999, "type": "business"}
{"business_id": "hlkCbViTRlQ5-lx8gopeoA", "full_address": "1225 Amsterdam Ave\nMorningside Heights\nNew York, NY 10027", "schools": ["Columbia University"], "open": true, "categories": ["Food", "Grocery", "Delis", "Restaurants"], "photo_url": "http://s3-media1.ak.yelpcdn.com/bphoto/T4jMJ-6Xq-HOQWtRquqWBA/ms.jpg", "city": "New York", "review_count": 84, "name": "Apple Tree Supermarket", "neighborhoods": ["Morningside Heights"], "url": "http://www.yelp.com/biz/apple-tree-supermarket-new-york-2", "longitude": -73.958907699999997, "state": "NY", "stars": 3.0, "latitude": 40.809491999999999, "type": "business"}
{"business_id": "n1C1A6jmHKRjqO0yNRidgA", "full_address": "2847 Broadway\nMorningside Heights\nNew York, NY 10025", "schools": ["Columbia University"], "open": false, "categories": ["Food", "Convenience Stores", "Restaurants"], "photo_url": "http://s3-media1.ak.yelpcdn.com/assets/2/www/img/924a6444ca6c/gfx/blank_biz_medium.gif", "city": "New York", "review_count": 7, "name": "Jas Mart", "neighborhoods": ["Morningside Heights"], "url": "http://www.yelp.com/biz/jas-mart-new-york-2", "longitude": -73.966517499999995, "state": "NY", "stars": 3.5, "latitude": 40.804577399999999, "type": "business"}
{"business_id": "fEzgfxIbWXJYo9ttAYfjPQ", "full_address": "West 120th Street\nb/w B'way and Amsterdam, nearest to 530 W. 120th\nb/w B'way and Amsterdam, nearest to 530 W. 120th\nHarlem\nNew York, NY", "schools": ["Columbia University"], "open": true, "categories": ["Halal", "Restaurants"], "photo_url": "http://s3-media1.ak.yelpcdn.com/assets/2/www/img/924a6444ca6c/gfx/blank_biz_medium.gif", "city": "New York", "review_count": 4, "name": "120th Street Halal Cart", "neighborhoods": ["Harlem"], "url": "http://www.yelp.com/biz/120th-street-halal-cart-new-york", "longitude": -73.953502999999998, "state": "NY", "stars": 3.0, "latitude": 40.806978999999998, "type": "business"}
{"business_id": "J9Yufym0BqTYVNTqW-n3ag", "full_address": "553 Manhattan Ave\nHarlem\nNew York, NY 10027", "schools": ["Columbia University"], "open": true, "categories": ["Wine Bars", "Bars", "American (New)", "Nightlife", "Restaurants"], "photo_url": "http://s3-media1.ak.yelpcdn.com/assets/2/www/img/924a6444ca6c/gfx/blank_biz_medium.gif", "city": "New York", "review_count": 7, "name": "Perk's", "neighborhoods": ["Harlem"], "url": "http://www.yelp.com/biz/perks-new-york", "longitude": -73.953895000000003, "state": "NY", "stars": 3.0, "latitude": 40.809463000000001, "type": "business"}
{"business_id": "WcjveH0MyzqQC8lgKviSFQ", "full_address": "973 Columbus Ave\nManhattan Valley\nNew York, NY 10025", "schools": ["Columbia University"], "open": false, "categories": ["French", "Restaurants"], "photo_url": "http://s3-media2.ak.yelpcdn.com/bphoto/dN-NR6Qg7rmE8Sl53_5yBg/ms.jpg", "city": "New York", "review_count": 27, "name": "La Belle", "neighborhoods": ["Manhattan Valley"], "url": "http://www.yelp.com/biz/la-belle-new-york", "longitude": -73.961850699999999, "state": "NY", "stars": 4.5, "latitude": 40.800358199999998, "type": "business"}
{"business_id": "KjFr-ZMtvlgf4l6NbPtCBQ", "full_address": "1302 Amsterdam Ave.\nHarlem\nManhattan, NY 10027", "schools": ["Columbia University"], "open": false, "categories": ["Pizza", "Restaurants"], "photo_url": "http://s3-media1.ak.yelpcdn.com/bphoto/9AUSDpXt52z3-5wl6KT_bw/ms.jpg", "city": "Manhattan", "review_count": 4, "name": "Family Affair", "neighborhoods": ["Harlem"], "url": "http://www.yelp.com/biz/family-affair-manhattan", "longitude": -73.957319400000003, "state": "NY", "stars": 4.0, "latitude": 40.811940700000001, "type": "business"}
{"business_id": "OZtXG5DUsJZrtMFWodCNnA", "full_address": "2100 Frederick Douglass Blvd\nHarlem\nNew York, NY 10026", "schools": ["Columbia University"], "open": true, "categories": ["American (New)", "Restaurants"], "photo_url": "http://s3-media4.ak.yelpcdn.com/bphoto/tc-v31p2NukNnpR0d1dgZQ/ms.jpg", "city": "New York", "review_count": 18, "name": "Harlem Food Bar", "neighborhoods": ["Harlem"], "url": "http://www.yelp.com/biz/harlem-food-bar-new-york", "longitude": -73.956259489059406, "state": "NY", "stars": 2.5, "latitude": 40.803512289429101, "type": "business"}
{"business_id": "by-1gi7evrPKSUmeaN1sXw", "full_address": "964 Amsterdam Ave\nManhattan Valley\nNew York, NY 10025", "schools": ["Columbia University"], "open": true, "categories": ["Food", "Coffee & Tea", "Pizza", "Diners", "Restaurants"], "photo_url": "http://s3-media1.ak.yelpcdn.com/assets/2/www/img/924a6444ca6c/gfx/blank_biz_medium.gif", "city": "New York", "review_count": 7, "name": "Jumbo Pizza Coffee Shop", "neighborhoods": ["Manhattan Valley"], "url": "http://www.yelp.com/biz/jumbo-pizza-coffee-shop-new-york", "longitude": -73.965217100000004, "state": "NY", "stars": 4.0, "latitude": 40.801427500000003, "type": "business"}
{"business_id": "75Q-TMhx81R1yfXSGaMcTQ", "full_address": "417 Manhattan Ave\nSte 2\nHarlem\nManhattan, NY 10026", "schools": ["Columbia University"], "open": true, "categories": ["Food Delivery Services", "Food", "Gluten-Free", "Vegan", "Restaurants"], "photo_url": "http://s3-media3.ak.yelpcdn.com/bphoto/uvL6XVziGjrU0OhI4JMtrg/ms.jpg", "city": "Manhattan", "review_count": 5, "name": "PerryBrook Foods", "neighborhoods": ["Harlem"], "url": "http://www.yelp.com/biz/perrybrook-foods-manhattan", "longitude": -73.956339200000002, "state": "NY", "stars": 5.0, "latitude": 40.806058, "type": "business"}
{"business_id": "yue8UWXtQ38ddVn0fqAn0A", "full_address": "185 St Nicholas Ave\nHarlem\nManhattan, NY 10026", "schools": ["Columbia University"], "open": true, "categories": ["French", "Restaurants"], "photo_url": "http://s3-media2.ak.yelpcdn.com/bphoto/c2QaieYCkbrbnrEdj--Hsw/ms.jpg", "city": "Manhattan", "review_count": 63, "name": "Cedric French Bistro and Bar", "neighborhoods": ["Harlem"], "url": "http://www.yelp.com/biz/cedric-french-bistro-and-bar-manhattan", "longitude": -73.9530551, "state": "NY", "stars": 4.0, "latitude": 40.806161699999997, "type": "business"}
{"business_id": "XCzjwOmvy_QROtczP8YlCA", "full_address": "965 Amsterdam Ave\nManhattan Valley\nNew York, NY 10025", "schools": ["Columbia University"], "open": true, "categories": ["Pizza", "Restaurants"], "photo_url": "http://s3-media3.ak.yelpcdn.com/bphoto/EunYRWiFJ2IsBE2sx0aEfQ/ms.jpg", "city": "New York", "review_count": 6, "name": "Domino's Pizza", "neighborhoods": ["Manhattan Valley"], "url": "http://www.yelp.com/biz/dominos-pizza-new-york-21", "longitude": -73.964874399999999, "state": "NY", "stars": 3.0, "latitude": 40.8013336, "type": "business"}
{"business_id": "7ZjXpKwP78R-02w12kLT4w", "full_address": "2888 Broadway\nMorningside Heights\nManhattan, NY 10025", "schools": ["Columbia University"], "open": true, "categories": ["Italian", "Pizza", "Restaurants"], "photo_url": "http://s3-media1.ak.yelpcdn.com/assets/2/www/img/924a6444ca6c/gfx/blank_biz_medium.gif", "city": "Manhattan", "review_count": 18, "name": "Il Cibreo", "neighborhoods": ["Morningside Heights"], "url": "http://www.yelp.com/biz/il-cibreo-manhattan-2", "longitude": -73.965279899999999, "state": "NY", "stars": 3.0, "latitude": 40.805601000000003, "type": "business"}
{"business_id": "geTFpY84Tp-nVTXflnxtDA", "full_address": "1024 Amsterdam Ave\nMorningside Heights\nNew York, NY 10025", "schools": ["Columbia University"], "open": true, "categories": ["Italian", "Pizza", "Restaurants"], "photo_url": "http://s3-media4.ak.yelpcdn.com/bphoto/h8wB8vNXh84Wi8HNhvTl9Q/ms.jpg", "city": "New York", "review_count": 100, "name": "V & T Pizzeria & Restaurant", "neighborhoods": ["Morningside Heights"], "url": "http://www.yelp.com/biz/v-and-t-pizzeria-and-restaurant-new-york", "longitude": -73.963844699999996, "state": "NY", "stars": 3.5, "latitude": 40.803320800000002, "type": "business"}
{"business_id": "_Dc5E16rCL16j2xsUHw18Q", "full_address": "998 Amsterdam Ave\nManhattan Valley\nNew York, NY 10025", "schools": ["Columbia University"], "open": false, "categories": ["Coffee & Tea", "Food", "Bars", "Nightlife", "Lounges", "American (New)", "Restaurants"], "photo_url": "http://s3-media3.ak.yelpcdn.com/bphoto/lKynGGaM3gbzFQyKLET-PA/ms.jpg", "city": "New York", "review_count": 112, "name": "Sip", "neighborhoods": ["Manhattan Valley"], "url": "http://www.yelp.com/biz/sip-new-york", "longitude": -73.964328899999998, "state": "NY", "stars": 3.0, "latitude": 40.802644200000003, "type": "business"}
{"business_id": "DGPkpfu9hm-ETpU6jL-ujQ", "full_address": "3496 Broadway\nHarlem\nNew York, NY 10027", "schools": ["Columbia University"], "open": false, "categories": ["Latin American", "Mexican", "Restaurants"], "photo_url": "http://s3-media4.ak.yelpcdn.com/bphoto/hyO0elUhtOLKHj3sbzf3AA/ms.jpg", "city": "New York", "review_count": 13, "name": "La Posada", "neighborhoods": ["Harlem"], "url": "http://www.yelp.com/biz/la-posada-new-york-2", "longitude": -73.953343000000004, "state": "NY", "stars": 3.5, "latitude": 40.811452000000003, "type": "business"}
{"business_id": "gmZGeYqlPR6dBwdBZ0K4Bg", "full_address": "1344 Amsterdam Ave\nHarlem\nNew York, NY 10027", "schools": ["Columbia University"], "open": true, "categories": ["Caribbean", "Restaurants"], "photo_url": "http://s3-media2.ak.yelpcdn.com/bphoto/4P7FDemmK3aSxy7L1PFurQ/ms.jpg", "city": "New York", "review_count": 4, "name": "Golden Krust", "neighborhoods": ["Harlem"], "url": "http://www.yelp.com/biz/golden-krust-new-york-2", "longitude": -73.956167899999997, "state": "NY", "stars": 3.5, "latitude": 40.813810199999999, "type": "business"}
{"business_id": "n_KosOPSHS81Yq0D6X3peQ", "full_address": "3151 Broadway\nHarlem\nManhattan, NY 10027", "schools": ["Columbia University"], "open": true, "categories": ["Fast Food", "Middle Eastern", "Restaurants"], "photo_url": "http://s3-media4.ak.yelpcdn.com/bphoto/MWkPKBO4om748mhPzWHRXQ/ms.jpg", "city": "Manhattan", "review_count": 32, "name": "Falafel On Broadway", "neighborhoods": ["Harlem"], "url": "http://www.yelp.com/biz/falafel-on-broadway-manhattan", "longitude": -73.9595044, "state": "NY", "stars": 4.0, "latitude": 40.814471500000003, "type": "business"}
{"business_id": "dz1qvyImYe6lG-UEU0VkTQ", "full_address": "1018 Amsterdam Ave\nManhattan Valley\nNew York City, NY 10025", "schools": ["Columbia University"], "open": true, "categories": ["American (New)", "Restaurants"], "photo_url": "http://s3-media3.ak.yelpcdn.com/bphoto/PtUwiqWgUp9aYqLTYRPU0A/ms.jpg", "city": "New York City", "review_count": 90, "name": "Bistro Ten 18", "neighborhoods": ["Manhattan Valley"], "url": "http://www.yelp.com/biz/bistro-ten-18-new-york-city", "longitude": -73.964172599999998, "state": "NY", "stars": 3.5, "latitude": 40.802963499999997, "type": "business"}
{"business_id": "XSZDmxCJIJ5BVXHwjDR5ag", "full_address": "383 W 125th St\nHarlem\nNew York, NY 10027", "schools": ["Columbia University"], "open": false, "categories": ["Restaurants"], "photo_url": "http://s3-media2.ak.yelpcdn.com/bphoto/oPYFBdY5kp3kM2BbsTo1mg/ms.jpg", "city": "New York", "review_count": 8, "name": "M & G Diner", "neighborhoods": ["Harlem"], "url": "http://www.yelp.com/biz/m-and-g-diner-new-york", "longitude": -73.9537373, "state": "NY", "stars": 4.5, "latitude": 40.811471900000001, "type": "business"}
{"business_id": "wZkZmjZEJDraLJgAalnHvA", "full_address": "125 La Salle St\nHarlem\nNew York, NY 10027", "schools": ["Columbia University"], "open": true, "categories": ["Italian", "Restaurants"], "photo_url": "http://s3-media1.ak.yelpcdn.com/bphoto/Fa3m5JeXXa7COAqcDv2e2g/ms.jpg", "city": "New York", "review_count": 248, "name": "Pisticci", "neighborhoods": ["Harlem"], "url": "http://www.yelp.com/biz/pisticci-new-york", "longitude": -73.960302499999997, "state": "NY", "stars": 4.0, "latitude": 40.8141216, "type": "business"}
{"business_id": "h37hllqEt6v9HGqzdiupow", "full_address": "953 Columbus Ave\nManhattan Valley\nNew York, NY 10025", "schools": ["Columbia University"], "open": true, "categories": ["Food", "Bakeries", "Gluten-Free", "Restaurants"], "photo_url": "http://s3-media3.ak.yelpcdn.com/bphoto/-i0XeNQWb9j5ZOuaCL_Inw/ms.jpg", "city": "New York", "review_count": 16, "name": "One Cup Two Cupcakes", "neighborhoods": ["Manhattan Valley"], "url": "http://www.yelp.com/biz/one-cup-two-cupcakes-new-york", "longitude": -73.962337899999994, "state": "NY", "stars": 3.5, "latitude": 40.799718400000003, "type": "business"}
{"business_id": "nfHJNQyVw4M6VTx5bqvnxw", "full_address": "2937 Broadway\nMorningside Heights\nNew York, NY 10025", "schools": ["Columbia University"], "open": false, "categories": ["Italian", "Restaurants"], "photo_url": "http://s3-media3.ak.yelpcdn.com/bphoto/ZY3TfRV7Bq87BVSD6owQFg/ms.jpg", "city": "New York", "review_count": 39, "name": "Pinnacle", "neighborhoods": ["Morningside Heights"], "url": "http://www.yelp.com/biz/pinnacle-new-york-2", "longitude": -73.964545599999994, "state": "NY", "stars": 3.0, "latitude": 40.807317099999999, "type": "business"}
{"business_id": "Hc-uW3uYqAOyB2as00J9og", "full_address": "2935 Broadway\nMorningside Heights\nNew York, NY 10025", "schools": ["Columbia University"], "open": true, "categories": ["Specialty Food", "Ethnic Food", "Japanese", "Food", "Convenience Stores", "Sandwiches", "Restaurants"], "photo_url": "http://s3-media3.ak.yelpcdn.com/bphoto/3GTTcV4ymeCTc4-0_8cxFQ/ms.jpg", "city": "New York", "review_count": 114, "name": "M2M", "neighborhoods": ["Morningside Heights"], "url": "http://www.yelp.com/biz/m2m-new-york-2", "longitude": -73.964772400000001, "state": "NY", "stars": 4.0, "latitude": 40.807229499999998, "type": "business"}
{"business_id": "vHzWvZYbkoHY_071J-lPRw", "full_address": "2867 Broadway\nMorningside Heights\nNew York, NY 10025", "schools": ["Columbia University"], "open": true, "categories": ["Burgers", "Bars", "American (Traditional)", "Nightlife", "Restaurants"], "photo_url": "http://s3-media2.ak.yelpcdn.com/bphoto/8L2mVPCRJYW5EhoX2ZR7pw/ms.jpg", "city": "New York", "review_count": 141, "name": "The Heights Bar & Grill", "neighborhoods": ["Morningside Heights"], "url": "http://www.yelp.com/biz/the-heights-bar-and-grill-new-york-3", "longitude": -73.966209000000006, "state": "NY", "stars": 3.5, "latitude": 40.805159000000003, "type": "business"}
{"business_id": "9aEtX7MDFjEtm5ySOViRUw", "full_address": "2118 Frederick Douglass Blvd\nHarlem\nNew York, NY 10026", "schools": ["Columbia University"], "open": true, "categories": ["Sushi Bars", "Restaurants"], "photo_url": "http://s3-media1.ak.yelpcdn.com/bphoto/fotYxYz4hzMIW2FMje3yoA/ms.jpg", "city": "New York", "review_count": 34, "name": "Jado Sushi", "neighborhoods": ["Harlem"], "url": "http://www.yelp.com/biz/jado-sushi-new-york", "longitude": -73.955824000000007, "state": "NY", "stars": 4.0, "latitude": 40.803280000000001, "type": "business"}
{"business_id": "wxrlMnjni_UanASIp4dq2g", "full_address": "1262 Amsterdam Ave\nMorningside Heights\nNew York, NY 10027", "schools": ["Columbia University"], "open": true, "categories": ["Italian", "Restaurants"], "photo_url": "http://s3-media2.ak.yelpcdn.com/bphoto/ktEYZZCn2Gl36ghQKAct-A/ms.jpg", "city": "New York", "review_count": 92, "name": "Max Caf\u00e9", "neighborhoods": ["Morningside Heights"], "url": "http://www.yelp.com/biz/max-caf%C3%A9-new-york-2", "longitude": -73.958128400000007, "state": "NY", "stars": 3.5, "latitude": 40.810842200000003, "type": "business"}
{"business_id": "tbg4gR3jUUllR28cySo2kg", "full_address": "947 Amsterdam Ave\nManhattan Valley\nNew York, NY 10025", "schools": ["Columbia University"], "open": true, "categories": ["Ethiopian", "Restaurants"], "photo_url": "http://s3-media3.ak.yelpcdn.com/bphoto/YHbeHnQxyen9NeYlowDmZA/ms.jpg", "city": "New York", "review_count": 172, "name": "Awash", "neighborhoods": ["Manhattan Valley"], "url": "http://www.yelp.com/biz/awash-new-york-2", "longitude": -73.965360399999994, "state": "NY", "stars": 4.0, "latitude": 40.800722700000001, "type": "business"}
{"business_id": "nAHhu6ZdaSN_qEmW2U1k_A", "full_address": "1187 Amsterdam Ave\nMorningside Heights\nNew York, NY 10027", "schools": ["Columbia University"], "open": false, "categories": ["American (New)", "Restaurants"], "photo_url": "http://s3-media1.ak.yelpcdn.com/assets/2/www/img/924a6444ca6c/gfx/blank_biz_medium.gif", "city": "New York", "review_count": 6, "name": "Radio Perfecto", "neighborhoods": ["Morningside Heights"], "url": "http://www.yelp.com/biz/radio-perfecto-new-york", "longitude": -73.959944399999998, "state": "NY", "stars": 2.5, "latitude": 40.808306700000003, "type": "business"}
{"business_id": "Ksadbzi6BFnyDH9QM9rWkw", "full_address": "280 St. Nicholas Ave\n2nd Fl\nHarlem\nNew York, NY 10027", "schools": ["Columbia University"], "open": true, "categories": ["Arts & Entertainment", "Pizza", "Arcades", "Restaurants"], "photo_url": "http://s3-media1.ak.yelpcdn.com/bphoto/ueZ2lD6pB0xywm7S5kcT5w/ms.jpg", "city": "New York", "review_count": 10, "name": "Chuck E. Cheese's", "neighborhoods": ["Harlem"], "url": "http://www.yelp.com/biz/chuck-e-cheeses-new-york", "longitude": -73.952139000000003, "state": "NY", "stars": 3.0, "latitude": 40.810105, "type": "business"}
{"business_id": "kg8_LyP0TvxkcTxP8d0riw", "full_address": "2288 Fredrick Douglass Blvd\nHarlem\nNew York, NY 10027", "schools": ["Columbia University"], "open": true, "categories": ["Pizza", "Restaurants"], "photo_url": "http://s3-media2.ak.yelpcdn.com/bphoto/AKapzTwUJtpTW833ta8qnw/ms.jpg", "city": "New York", "review_count": 16, "name": "Pizzeria 123", "neighborhoods": ["Harlem"], "url": "http://www.yelp.com/biz/pizzeria-123-new-york", "longitude": -73.952152100000006, "state": "NY", "stars": 3.0, "latitude": 40.808822900000003, "type": "business"}
{"business_id": "X2KeJ4OdlkzTEpCETaaoCw", "full_address": "501 W 125th St\nHarlem\nNew York, NY 10027", "schools": ["Columbia University"], "open": false, "categories": ["Soup", "Delis", "Caribbean", "Restaurants"], "photo_url": "http://s3-media1.ak.yelpcdn.com/assets/2/www/img/924a6444ca6c/gfx/blank_biz_medium.gif", "city": "New York", "review_count": 7, "name": "Pino's Cafe", "neighborhoods": ["Harlem"], "url": "http://www.yelp.com/biz/pinos-cafe-new-york", "longitude": -73.9562399, "state": "NY", "stars": 4.0, "latitude": 40.813778900000003, "type": "business"}
{"business_id": "eVZGBIWAmQxiTwVYA0pjWA", "full_address": "946 Columbus Ave\nManhattan Valley\nNew York, NY 10025", "schools": ["Columbia University"], "open": true, "categories": ["Specialty Food", "Ethnic Food", "Halal", "Food", "Restaurants"], "photo_url": "http://s3-media1.ak.yelpcdn.com/assets/2/www/img/924a6444ca6c/gfx/blank_biz_medium.gif", "city": "New York", "review_count": 4, "name": "Little Gujrat Deli", "neighborhoods": ["Manhattan Valley"], "url": "http://www.yelp.com/biz/little-gujrat-deli-new-york", "longitude": -73.962931999999995, "state": "NY", "stars": 3.0, "latitude": 40.799722000000003, "type": "business"}
{"business_id": "8oHCb-XvLpqCQD7En17Fzw", "full_address": "2843 Broadway\nManhattan Valley\nNew York, NY 10025", "schools": ["Columbia University"], "open": true, "categories": ["Mexican", "Restaurants"], "photo_url": "http://s3-media2.ak.yelpcdn.com/bphoto/wLBz0C_Mudhb-0pAk7QTvQ/ms.jpg", "city": "New York", "review_count": 32, "name": "Chipotle", "neighborhoods": ["Manhattan Valley"], "url": "http://www.yelp.com/biz/chipotle-new-york-4", "longitude": -73.966737800000004, "state": "NY", "stars": 3.5, "latitude": 40.804466400000003, "type": "business"}
{"business_id": "pDEvJfSbXV6RaxDTwNTmWQ", "full_address": "390 Manhattan Ave\nHarlem\nManhattan, NY 10026", "schools": ["Columbia University"], "open": true, "categories": ["Breakfast & Brunch", "Sandwiches", "Restaurants"], "photo_url": "http://s3-media3.ak.yelpcdn.com/bphoto/5T8lOWvLxtfpmb2ij6Foyg/ms.jpg", "city": "Manhattan", "review_count": 14, "name": "The Orange Peel", "neighborhoods": ["Harlem"], "url": "http://www.yelp.com/biz/the-orange-peel-manhattan", "longitude": -73.956388000000004, "state": "NY", "stars": 4.5, "latitude": 40.805424600000002, "type": "business"}
{"business_id": "osuamA7_d3iHOuniXiGu3g", "full_address": "1030 Amsterdam Ave\nMorningside Heights\nNew York, NY 10025", "schools": ["Columbia University"], "open": false, "categories": ["Delis", "Restaurants"], "photo_url": "http://s3-media3.ak.yelpcdn.com/bphoto/jT5cpZ4Nm4fBejKWvdzqzw/ms.jpg", "city": "New York", "review_count": 34, "name": "P & W Sandwich Shop", "neighborhoods": ["Morningside Heights"], "url": "http://www.yelp.com/biz/p-and-w-sandwich-shop-new-york", "longitude": -73.963686699999997, "state": "NY", "stars": 4.0, "latitude": 40.803548800000002, "type": "business"}
{"business_id": "ZiLCt6uZlGY61roYdfeqWA", "full_address": "949 Columbus Ave\nManhattan Valley\nNew York, NY 10025", "schools": ["Columbia University"], "open": false, "categories": ["Italian", "French", "Restaurants"], "photo_url": "http://s3-media1.ak.yelpcdn.com/bphoto/lp49O0ddA-aAcsykIOTGhw/ms.jpg", "city": "New York", "review_count": 52, "name": "Voza", "neighborhoods": ["Manhattan Valley"], "url": "http://www.yelp.com/biz/voza-new-york-2", "longitude": -73.962397999999993, "state": "NY", "stars": 4.0, "latitude": 40.7996075, "type": "business"}
{"business_id": "aVBHU_OAEau7sdk73EpNwA", "full_address": "355 W 116th St\nHarlem\nNew York, NY 10026", "schools": ["Columbia University"], "open": false, "categories": ["African", "Restaurants"], "photo_url": "http://s3-media2.ak.yelpcdn.com/bphoto/HCLhVnUMSF-e3pQOeOgMmA/ms.jpg", "city": "New York", "review_count": 16, "name": "Kuti's", "neighborhoods": ["Harlem"], "url": "http://www.yelp.com/biz/kutis-new-york", "longitude": -73.957029000000006, "state": "NY", "stars": 4.0, "latitude": 40.805134299999999, "type": "business"}
{"business_id": "-6ncX3fnQ9OLCjfiUe-kFg", "full_address": "2957 Broadway\nMorningside Heights\nNew York, NY 10025", "schools": ["Columbia University"], "open": true, "categories": ["Chinese", "Restaurants"], "photo_url": "http://s3-media1.ak.yelpcdn.com/bphoto/8YMq9XpZieHg2rkXy-hslQ/ms.jpg", "city": "New York", "review_count": 171, "name": "Ollie's", "neighborhoods": ["Morningside Heights"], "url": "http://www.yelp.com/biz/ollies-new-york", "longitude": -73.964370727539105, "state": "NY", "stars": 2.0, "latitude": 40.807975769042997, "type": "business"}
{"business_id": "Lr_x2ey_DQs_8ACS-1t7rA", "full_address": "271 West 119th St\nHarlem\nNew York, NY 10026", "schools": ["Columbia University"], "open": true, "categories": ["Soul Food", "Bars", "Nightlife", "Lounges", "Restaurants"], "photo_url": "http://s3-media2.ak.yelpcdn.com/bphoto/Z0fT42gx9Z89AaMNwOeg6w/ms.jpg", "city": "New York", "review_count": 37, "name": "Billie's Black", "neighborhoods": ["Harlem"], "url": "http://www.yelp.com/biz/billies-black-new-york", "longitude": -73.953204499999998, "state": "NY", "stars": 3.5, "latitude": 40.806221999999998, "type": "business"}
{"business_id": "A46G2OAvLxFswiONB50Rrg", "full_address": "2848 Broadway\nMorningside Heights\nNew York, NY 10025", "schools": ["Columbia University"], "open": true, "categories": ["Pizza", "Restaurants"], "photo_url": "http://s3-media3.ak.yelpcdn.com/bphoto/OOI3c4GFqcecgbhKimHKRA/ms.jpg", "city": "New York", "review_count": 330, "name": "Koronet Pizza", "neighborhoods": ["Morningside Heights"], "url": "http://www.yelp.com/biz/koronet-pizza-new-york", "longitude": -73.966054999999997, "state": "NY", "stars": 3.5, "latitude": 40.804419000000003, "type": "business"}
{"business_id": "ffp58kYSK7dJGs5ER-5txw", "full_address": "1260 Amsterdam Ave\nMorningside Heights\nNew York, NY 10027", "schools": ["Columbia University"], "open": true, "categories": ["Italian", "Restaurants"], "photo_url": "http://s3-media2.ak.yelpcdn.com/bphoto/xH8LtjHzKL6PzHgX_OPMkQ/ms.jpg", "city": "New York", "review_count": 72, "name": "Sezz Medi", "neighborhoods": ["Morningside Heights"], "url": "http://www.yelp.com/biz/sezz-medi-new-york", "longitude": -73.958154199999996, "state": "NY", "stars": 3.0, "latitude": 40.810779199999999, "type": "business"}
{"business_id": "K-vL-ShpGsgbwf5chcE6vg", "full_address": "2893 Broadway\nMorningside Heights\nNew York, NY 10025", "schools": ["Columbia University"], "open": false, "categories": ["Mexican", "Restaurants"], "photo_url": "http://s3-media1.ak.yelpcdn.com/assets/2/www/img/924a6444ca6c/gfx/blank_biz_medium.gif", "city": "New York", "review_count": 4, "name": "Nacho Mama's Burritos", "neighborhoods": ["Morningside Heights"], "url": "http://www.yelp.com/biz/nacho-mamas-burritos-new-york", "longitude": -73.965739400000004, "state": "NY", "stars": 2.0, "latitude": 40.805904599999998, "type": "business"}
{"business_id": "uCsyRxfIfiRqQQuK_JlfZA", "full_address": "301 W 116th St\nHarlem\nNew York, NY 10026", "schools": ["Columbia University"], "open": true, "categories": ["Pubs", "Bars", "American (New)", "Nightlife", "Restaurants"], "photo_url": "http://s3-media2.ak.yelpcdn.com/bphoto/GuN2UdZBIh6dh8jWPJqw7g/ms.jpg", "city": "New York", "review_count": 228, "name": "Harlem Tavern", "neighborhoods": ["Harlem"], "url": "http://www.yelp.com/biz/harlem-tavern-new-york", "longitude": -73.955387999999999, "state": "NY", "stars": 3.5, "latitude": 40.804444699999998, "type": "business"}
{"business_id": "EagYyiLaNjIVJ_HFDwlGBQ", "full_address": "2756 Broadway\nManhattan Valley\nNew York, NY 10025", "schools": ["Columbia University"], "open": false, "categories": ["Italian", "Restaurants"], "photo_url": "http://s3-media1.ak.yelpcdn.com/assets/2/www/img/924a6444ca6c/gfx/blank_biz_medium.gif", "city": "New York", "review_count": 14, "name": "Meridiana Restaurant", "neighborhoods": ["Manhattan Valley"], "url": "http://www.yelp.com/biz/meridiana-restaurant-new-york", "longitude": -73.967614900000001, "state": "NY", "stars": 3.0, "latitude": 40.800929400000001, "type": "business"}
{"business_id": "qT9P64pYtAEjipB4SXGolA", "full_address": "2850 Broadway\nMorningside Heights\nNew York, NY 10025", "schools": ["Columbia University"], "open": false, "categories": ["Restaurants"], "photo_url": "http://s3-media1.ak.yelpcdn.com/assets/2/www/img/924a6444ca6c/gfx/blank_biz_medium.gif", "city": "New York", "review_count": 27, "name": "Tomo Sushi & Sake Bar", "neighborhoods": ["Morningside Heights"], "url": "http://www.yelp.com/biz/tomo-sushi-and-sake-bar-new-york", "longitude": -73.9661507, "state": "NY", "stars": 3.0, "latitude": 40.8045203, "type": "business"}
{"business_id": "7pMyF2qq9pqMfzLZEvrohA", "full_address": "1131 Amsterdam Ave\nat 116th St\nMorningside Heights\nNew York, NY 10027", "schools": ["Columbia University"], "open": true, "categories": ["Delis", "Restaurants"], "photo_url": "http://s3-media4.ak.yelpcdn.com/bphoto/sN4vcLt9pDPh_0w8PARg3Q/ms.jpg", "city": "New York", "review_count": 53, "name": "Hamilton Deli", "neighborhoods": ["Morningside Heights"], "url": "http://www.yelp.com/biz/hamilton-deli-new-york", "longitude": -73.961270999999996, "state": "NY", "stars": 3.5, "latitude": 40.8065347, "type": "business"}
{"business_id": "x6ZI-_J7X9WK17l77x53-w", "full_address": "945 Amsterdam Ave\nManhattan Valley\nNew York, NY 10025", "schools": ["Columbia University"], "open": true, "categories": ["Delis", "Sandwiches", "Restaurants"], "photo_url": "http://s3-media1.ak.yelpcdn.com/assets/2/www/img/924a6444ca6c/gfx/blank_biz_medium.gif", "city": "New York", "review_count": 3, "name": "Columbia Deli", "neighborhoods": ["Manhattan Valley"], "url": "http://www.yelp.com/biz/columbia-deli-new-york", "longitude": -73.965403800000004, "state": "NY", "stars": 4.0, "latitude": 40.800652700000001, "type": "business"}
{"business_id": "51DwJDP5TOlsCQYc0GQdVQ", "full_address": "1288 Amsterdam Ave\nHarlem\nNew York, NY 10027", "schools": ["Columbia University"], "open": true, "categories": ["Chinese", "Restaurants"], "photo_url": "http://s3-media4.ak.yelpcdn.com/bphoto/hNhXEqWUWZX4zCbA19Tv7g/ms.jpg", "city": "New York", "review_count": 21, "name": "West Place", "neighborhoods": ["Harlem"], "url": "http://www.yelp.com/biz/west-place-new-york", "longitude": -73.957862399999996, "state": "NY", "stars": 3.0, "latitude": 40.811654300000001, "type": "business"}
{"business_id": "IDSpUSv-Td6-y8rC4JuCsw", "full_address": "185 St Nicholas Ave\nHarlem\nNew York, NY 10026", "schools": ["Columbia University"], "open": false, "categories": ["American (New)", "Mediterranean", "Restaurants"], "photo_url": "http://s3-media1.ak.yelpcdn.com/bphoto/SStQ0n8loOVZjya1PuNKsg/ms.jpg", "city": "New York", "review_count": 20, "name": "Mojo", "neighborhoods": ["Harlem"], "url": "http://www.yelp.com/biz/mojo-new-york", "longitude": -73.9530551, "state": "NY", "stars": 3.5, "latitude": 40.806161699999997, "type": "business"}
{"business_id": "IfLTw-yFMpuiqAdYRxLv8Q", "full_address": "2210 Frederick Douglass Blvd\nHarlem\nNew York, NY 10026", "schools": ["Columbia University"], "open": true, "categories": ["Bars", "Nightlife", "Restaurants"], "photo_url": "http://s3-media1.ak.yelpcdn.com/bphoto/CcIqdGiUb-nLIneJEtvh8A/ms.jpg", "city": "New York", "review_count": 68, "name": "Moca Bar & Lounge", "neighborhoods": ["Harlem"], "url": "http://www.yelp.com/biz/moca-bar-and-lounge-new-york", "longitude": -73.953715200000005, "state": "NY", "stars": 3.5, "latitude": 40.806383400000001, "type": "business"}
{"business_id": "_5BoZ_C5zEl5M_MxT1W39w", "full_address": "2799 Broadway 108th St\nManhattan Valley\nNew York, NY 10025", "schools": ["Columbia University"], "open": true, "categories": ["Bars", "Mexican", "Nightlife", "Restaurants"], "photo_url": "http://s3-media2.ak.yelpcdn.com/bphoto/5AVpncQuQdvoo18_x91omw/ms.jpg", "city": "New York", "review_count": 81, "name": "Cascabel Taqueria", "neighborhoods": ["Manhattan Valley"], "url": "http://www.yelp.com/biz/cascabel-taqueria-new-york-2", "longitude": -73.967578411102295, "state": "NY", "stars": 3.0, "latitude": 40.802683917160401, "type": "business"}
{"business_id": "CJNj7-nfZZX7V1UnHm3atQ", "full_address": "Broadway between 115th & 116th\nMorningside Heights\nNew York, NY 10027", "schools": ["Columbia University"], "open": true, "categories": ["Indian", "Food Stands", "Restaurants"], "photo_url": "http://s3-media1.ak.yelpcdn.com/assets/2/www/img/924a6444ca6c/gfx/blank_biz_medium.gif", "city": "New York", "review_count": 4, "name": "Dosa Cart", "neighborhoods": ["Morningside Heights"], "url": "http://www.yelp.com/biz/dosa-cart-new-york", "longitude": -73.964134454727201, "state": "NY", "stars": 4.0, "latitude": 40.8075727882552, "type": "business"}
{"business_id": "HmXS5HN-E-DVMEY0mwjelg", "full_address": "941 Amsterdam Ave\nManhattan Valley\nNew York, NY 10025", "schools": ["Columbia University"], "open": true, "categories": ["Pizza", "Restaurants"], "photo_url": "http://s3-media3.ak.yelpcdn.com/bphoto/QUvesQfOW31q8ISeeHrdMg/ms.jpg", "city": "New York", "review_count": 26, "name": "Mama's Pizzeria", "neighborhoods": ["Manhattan Valley"], "url": "http://www.yelp.com/biz/mamas-pizzeria-new-york", "longitude": -73.9656023, "state": "NY", "stars": 4.0, "latitude": 40.800586299999999, "type": "business"}
{"business_id": "YgGbeBYxOSmRi6CFn04MoQ", "full_address": "1215 Amsterdam Ave\nMorningside Heights\nNew York, NY 10027", "schools": ["Columbia University"], "open": true, "categories": ["Italian", "Pizza", "Restaurants"], "photo_url": "http://s3-media4.ak.yelpcdn.com/bphoto/RiKFjuW5D7bHvC3ciDK-tg/ms.jpg", "city": "New York", "review_count": 62, "name": "Che' Bella Pizza", "neighborhoods": ["Morningside Heights"], "url": "http://www.yelp.com/biz/che-bella-pizza-new-york", "longitude": -73.959238499999998, "state": "NY", "stars": 3.5, "latitude": 40.809036999999996, "type": "business"}
{"business_id": "SoiQJEuE9biX5cwBvlMVLA", "full_address": "2134 8th Ave\nHarlem\nNew York, NY 10026", "schools": ["Columbia University"], "open": true, "categories": ["African", "Restaurants"], "photo_url": "http://s3-media3.ak.yelpcdn.com/bphoto/HHWJDDB_qTGuYOWUo8gndg/ms.jpg", "city": "New York", "review_count": 3, "name": "Salimata Restaurant", "neighborhoods": ["Harlem"], "url": "http://www.yelp.com/biz/salimata-restaurant-new-york", "longitude": -73.955551, "state": "NY", "stars": 4.5, "latitude": 40.803907500000001, "type": "business"}
{"business_id": "02goPV7NW1StFyas5PVSeg", "full_address": "975 Amsterdam Ave\nManhattan Valley\nNew York, NY 10027", "schools": ["Columbia University"], "open": true, "categories": ["Seafood", "Restaurants"], "photo_url": "http://s3-media1.ak.yelpcdn.com/assets/2/www/img/924a6444ca6c/gfx/blank_biz_medium.gif", "city": "New York", "review_count": 5, "name": "New Young Fish", "neighborhoods": ["Manhattan Valley"], "url": "http://www.yelp.com/biz/new-young-fish-new-york", "longitude": -73.964551, "state": "NY", "stars": 3.5, "latitude": 40.801515000000002, "type": "business"}
{"business_id": "ySzkBv-_DTNT30eONPnAkg", "full_address": "2084 Frederick Douglass Blvd\nHarlem\nNew York, NY 10026", "schools": ["Columbia University"], "open": true, "categories": ["Ethiopian", "Restaurants"], "photo_url": "http://s3-media2.ak.yelpcdn.com/bphoto/XT0NdgfdksP1Sm0E2G8dpA/ms.jpg", "city": "New York", "review_count": 170, "name": "Zoma", "neighborhoods": ["Harlem"], "url": "http://www.yelp.com/biz/zoma-new-york", "longitude": -73.956551000000005, "state": "NY", "stars": 4.0, "latitude": 40.802249000000003, "type": "business"}
{"business_id": "PUATlg41Z_bnmOPWcPBt-A", "full_address": "400 W 119th St\nMorningside Heights\nNew York, NY 10027", "schools": ["Columbia University"], "open": false, "categories": ["French", "Restaurants"], "photo_url": "http://s3-media3.ak.yelpcdn.com/bphoto/59CuTwQtElygLnDy8ZXAvw/ms.jpg", "city": "New York", "review_count": 74, "name": "Terrace In the Sky", "neighborhoods": ["Morningside Heights"], "url": "http://www.yelp.com/biz/terrace-in-the-sky-new-york", "longitude": -73.958394999999996, "state": "NY", "stars": 3.0, "latitude": 40.808152999999997, "type": "business"}
{"business_id": "5Vn6sxKkzvZLcEM2yZcjfQ", "full_address": "935 Amsterdam Ave\nManhattan Valley\nNew York, NY 10025", "schools": ["Columbia University"], "open": true, "categories": ["Chinese", "Restaurants"], "photo_url": "http://s3-media4.ak.yelpcdn.com/bphoto/aTVzhF-V9XqdjaIUnNiLlA/ms.jpg", "city": "New York", "review_count": 16, "name": "Empire Corner Restaurant", "neighborhoods": ["Manhattan Valley"], "url": "http://www.yelp.com/biz/empire-corner-restaurant-new-york", "longitude": -73.965814600000002, "state": "NY", "stars": 2.5, "latitude": 40.800295599999998, "type": "business"}
{"business_id": "TWpiHjsd0c9Q9OG9l38SBg", "full_address": "949 Columbus Ave\nManhattan Valley\nManhattan, NY 10025", "schools": ["Columbia University"], "open": true, "categories": ["Bars", "Mediterranean", "Nightlife", "Lounges", "American (New)", "Restaurants"], "photo_url": "http://s3-media3.ak.yelpcdn.com/bphoto/ELUXl2KqxNOnJQPWidI9-Q/ms.jpg", "city": "Manhattan", "review_count": 31, "name": "Lura", "neighborhoods": ["Manhattan Valley"], "url": "http://www.yelp.com/biz/lura-manhattan", "longitude": -73.962552799999997, "state": "NY", "stars": 3.5, "latitude": 40.799672200000003, "type": "business"}
{"business_id": "_DPEAIvsH92phbwh2W-ADA", "full_address": "2937 Broadway\nMorningside Heights\nManhattan, NY 10025", "schools": ["Columbia University"], "open": true, "categories": ["Italian", "Restaurants"], "photo_url": "http://s3-media1.ak.yelpcdn.com/assets/2/www/img/924a6444ca6c/gfx/blank_biz_medium.gif", "city": "Manhattan", "review_count": 13, "name": "UniCaf\u00e9", "neighborhoods": ["Morningside Heights"], "url": "http://www.yelp.com/biz/unicaf%C3%A9-manhattan-2", "longitude": -73.964404500000001, "state": "NY", "stars": 2.5, "latitude": 40.807124899999998, "type": "business"}
{"business_id": "rLGVYIM4DHSMW1yi4-zhwQ", "full_address": "1241 Amsterdam Ave\nMorningside Heights\nNew York, NY 10027", "schools": ["Columbia University"], "open": false, "categories": ["American (New)", "Restaurants"], "photo_url": "http://s3-media1.ak.yelpcdn.com/bphoto/0Gt8i97q_S6QUL1_WJThAg/ms.jpg", "city": "New York", "review_count": 39, "name": "Cafe Bagutta", "neighborhoods": ["Morningside Heights"], "url": "http://www.yelp.com/biz/cafe-bagutta-new-york", "longitude": -73.958674999999999, "state": "NY", "stars": 3.0, "latitude": 40.810033799999999, "type": "business"}
{"business_id": "hHg8ADXX-0z0-oHGySXNFg", "full_address": "606 W 115th St\nMorningside Heights\nNew York, NY 10025", "schools": ["Columbia University"], "open": true, "categories": ["Kosher", "Mediterranean", "Restaurants"], "photo_url": "http://s3-media1.ak.yelpcdn.com/assets/2/www/img/924a6444ca6c/gfx/blank_biz_medium.gif", "city": "New York", "review_count": 4, "name": "Cafe Nana", "neighborhoods": ["Morningside Heights"], "url": "http://www.yelp.com/biz/cafe-nana-new-york", "longitude": -73.965164000000001, "state": "NY", "stars": 3.5, "latitude": 40.807572999999998, "type": "business"}
{"business_id": "rGEeBgbztKbFDh4kum8x1w", "full_address": "1034 Amsterdam Ave\nMorningside Heights\nNew York, NY 10025", "schools": ["Columbia University"], "open": true, "categories": ["Chinese", "Restaurants"], "photo_url": "http://s3-media1.ak.yelpcdn.com/bphoto/8YdVFvDJ_tXTfIW2_ortmw/ms.jpg", "city": "New York", "review_count": 77, "name": "Columbia Cottage", "neighborhoods": ["Morningside Heights"], "url": "http://www.yelp.com/biz/columbia-cottage-new-york", "longitude": -73.963414599999993, "state": "NY", "stars": 3.0, "latitude": 40.803587299999997, "type": "business"}
{"business_id": "0Kcuy_vyfWlAetDgdmIy3g", "full_address": "Columbia University\n515 W 114th St\nMorningside Heights\nNew York, NY 10027", "schools": ["Columbia University"], "open": true, "categories": ["American (Traditional)", "Restaurants"], "photo_url": "http://s3-media3.ak.yelpcdn.com/bphoto/PeWdCLbIPB2YrBHKEV39vw/ms.jpg", "city": "New York", "review_count": 5, "name": "John Jay Dining Hall", "neighborhoods": ["Morningside Heights"], "url": "http://www.yelp.com/biz/john-jay-dining-hall-new-york", "longitude": -73.962383500000001, "state": "NY", "stars": 2.0, "latitude": 40.8056877, "type": "business"}
{"business_id": "yA-D2JsM279hh07O47Xf7g", "full_address": "500 Riverside Dr\nHarlem\nManhattan, NY 10027", "schools": ["Columbia University"], "open": true, "categories": ["Buffets", "Restaurants"], "photo_url": "http://s3-media2.ak.yelpcdn.com/bphoto/17dD5y8X9YfCgrZSBr6L7A/ms.jpg", "city": "Manhattan", "review_count": 2, "name": "International House Dining Hall", "neighborhoods": ["Harlem"], "url": "http://www.yelp.com/biz/international-house-dining-hall-manhattan", "longitude": -73.961526000000006, "state": "NY", "stars": 2.5, "latitude": 40.813783000000001, "type": "business"}
{"business_id": "H8TAPuQZa_pFaitbRnpY8Q", "full_address": "2911 Broadway\nMorningside Heights\nNew York, NY 10025", "schools": ["Columbia University"], "open": true, "categories": ["Middle Eastern", "Restaurants"], "photo_url": "http://s3-media2.ak.yelpcdn.com/bphoto/rZ52_BRlc33rOW7qZ9I-hQ/ms.jpg", "city": "New York", "review_count": 67, "name": "Amir's Falafel", "neighborhoods": ["Morningside Heights"], "url": "http://www.yelp.com/biz/amirs-falafel-new-york", "longitude": -73.965110600000003, "state": "NY", "stars": 2.5, "latitude": 40.8064994, "type": "business"}
{"business_id": "GDATF7Wkz9XhaucMdRxUpg", "full_address": "110th St and Broadway\nManhattan Valley\nNew York, NY 10025", "schools": ["Columbia University"], "open": true, "categories": ["Middle Eastern", "Food Stands", "Restaurants"], "photo_url": "http://s3-media2.ak.yelpcdn.com/bphoto/mC0xnSdNvXRiNobEPG9_IQ/ms.jpg", "city": "New York", "review_count": 6, "name": "Shangri-La Express", "neighborhoods": ["Manhattan Valley"], "url": "http://www.yelp.com/biz/shangri-la-express-new-york", "longitude": -73.966617400000004, "state": "NY", "stars": 3.5, "latitude": 40.804134699999999, "type": "business"}
{"business_id": "-8H1cK_UrrwnL2oh_ts2Vw", "full_address": "2841 Broadway\nMorningside Heights\nNew York, NY 10025", "schools": ["Columbia University"], "open": false, "categories": ["Moroccan", "Restaurants"], "photo_url": "http://s3-media2.ak.yelpcdn.com/bphoto/BYdzqpszFWjcFl4A3z0s6g/ms.jpg", "city": "New York", "review_count": 9, "name": "Casbah Rouge", "neighborhoods": ["Morningside Heights"], "url": "http://www.yelp.com/biz/casbah-rouge-new-york", "longitude": -73.967042000000006, "state": "NY", "stars": 4.0, "latitude": 40.804613000000003, "type": "business"}
{"business_id": "JCPykGY64Ok0MXo1T_35Cw", "full_address": "2158 8th Ave\nHarlem\nNew York, NY 10026", "schools": ["Columbia University"], "open": true, "categories": ["Fast Food", "Restaurants"], "photo_url": "http://s3-media3.ak.yelpcdn.com/bphoto/DCr-LYVZ9psJElPLZ-d6FA/ms.jpg", "city": "New York", "review_count": 9, "name": "Mama's Fried Chicken", "neighborhoods": ["Harlem"], "url": "http://www.yelp.com/biz/mamas-fried-chicken-new-york-2", "longitude": -73.955132599999999, "state": "NY", "stars": 3.0, "latitude": 40.804706500000002, "type": "business"}
{"business_id": "Fk495HaokZDrGkAG8s_dlg", "full_address": "2099 Frederick Douglass Blvd\nHarlem\nNew York, NY 10026", "schools": ["Columbia University"], "open": true, "categories": ["German", "Bars", "Nightlife", "Restaurants"], "photo_url": "http://s3-media3.ak.yelpcdn.com/bphoto/laNwydgFVvrAaIg-3z2Mbg/ms.jpg", "city": "New York", "review_count": 161, "name": "Bier International", "neighborhoods": ["Harlem"], "url": "http://www.yelp.com/biz/bier-international-new-york", "longitude": -73.956710100174007, "state": "NY", "stars": 3.5, "latitude": 40.802618946349, "type": "business"}
{"business_id": "kTSejIjmKGsK1Erwdser4g", "full_address": "3070 Broadway\nMorningside Heights\nManhattan, NY 10027", "schools": ["Columbia University"], "open": true, "categories": ["Delis", "Restaurants"], "photo_url": "http://s3-media1.ak.yelpcdn.com/bphoto/Q0pzduhhAF4zX_GO945cJg/ms.jpg", "city": "Manhattan", "review_count": 11, "name": "Broadway Au Lait", "neighborhoods": ["Morningside Heights"], "url": "http://www.yelp.com/biz/broadway-au-lait-manhattan", "longitude": -73.961201700000004, "state": "NY", "stars": 4.0, "latitude": 40.811513599999998, "type": "business"}
{"business_id": "YKAwpTnKO-n5vB9-pqaCLQ", "full_address": "968 Amsterdam Ave\nManhattan Valley\nNew York, NY 10025", "schools": ["Columbia University"], "open": true, "categories": ["Mexican", "Restaurants"], "photo_url": "http://s3-media2.ak.yelpcdn.com/bphoto/JL81HrDPuipKlwV1bF9zKg/ms.jpg", "city": "New York", "review_count": 228, "name": "Taqueria Y La Fonda", "neighborhoods": ["Manhattan Valley"], "url": "http://www.yelp.com/biz/taqueria-y-la-fonda-new-york", "longitude": -73.965170799999996, "state": "NY", "stars": 3.5, "latitude": 40.801496800000002, "type": "business"}
{"business_id": "7hgygLzjMf3YQE6oL1E3Aw", "full_address": "71 W 109th St\nManhattan Valley\nManhattan, NY 10025", "schools": ["Columbia University"], "open": true, "categories": ["Pakistani", "Indian", "Restaurants"], "photo_url": "http://s3-media2.ak.yelpcdn.com/bphoto/cvz10FZEzZCMVCeAR3aRxA/ms.jpg", "city": "Manhattan", "review_count": 11, "name": "Shahi Biryani & Grill", "neighborhoods": ["Manhattan Valley"], "url": "http://www.yelp.com/biz/shahi-biryani-and-grill-manhattan", "longitude": -73.961056999999997, "state": "NY", "stars": 3.5, "latitude": 40.801175999999998, "type": "business"}
{"business_id": "J9xVQScnr0lYWl61_mLXMA", "full_address": "2168 Frederick Douglass Blvd\n117th St\nHarlem\nManhattan, NY 10026", "schools": ["Columbia University"], "open": true, "categories": ["Italian", "Restaurants"], "photo_url": "http://s3-media4.ak.yelpcdn.com/bphoto/M9sGMbg8bEIPIdcrHhiFGA/ms.jpg", "city": "Manhattan", "review_count": 131, "name": "Lido", "neighborhoods": ["Harlem"], "url": "http://www.yelp.com/biz/lido-manhattan", "longitude": -73.954881700000001, "state": "NY", "stars": 4.0, "latitude": 40.805055099999997, "type": "business"}
{"business_id": "ZcTI78WOKE-iLAzAGccOvA", "full_address": "256 W 116th St\nHarlem\nNew York, NY 10026", "schools": ["Columbia University"], "open": true, "categories": ["American (Traditional)", "African", "Restaurants"], "photo_url": "http://s3-media3.ak.yelpcdn.com/bphoto/MW4yO4oWyN8dwWUGaIfaKg/ms.jpg", "city": "New York", "review_count": 35, "name": "Africa Kine Restaurant", "neighborhoods": ["Harlem"], "url": "http://www.yelp.com/biz/africa-kine-restaurant-new-york", "longitude": -73.955157499999999, "state": "NY", "stars": 3.0, "latitude": 40.804186600000001, "type": "business"}
{"business_id": "cRyZA1k3nvqj_0s_kr7HGA", "full_address": "2787 Broadway\nManhattan Valley\nNew York, NY 10025", "schools": ["Columbia University"], "open": true, "categories": ["American (Traditional)", "Restaurants"], "photo_url": "http://s3-media2.ak.yelpcdn.com/bphoto/nkrzPDG443dDuk_xedKnjw/ms.jpg", "city": "New York", "review_count": 36, "name": "107 West Restaurant", "neighborhoods": ["Manhattan Valley"], "url": "http://www.yelp.com/biz/107-west-restaurant-new-york-2", "longitude": -73.968078000000006, "state": "NY", "stars": 3.5, "latitude": 40.802701300000003, "type": "business"}
{"business_id": "PE2Ny-4ajVpNnKH-hV5BPQ", "full_address": "W 117th St\nFrederick Douglass Blvd\nHarlem\nNew York, NY 10026", "schools": ["Columbia University"], "open": true, "categories": ["Food Stands", "Restaurants"], "photo_url": "http://s3-media2.ak.yelpcdn.com/bphoto/4TNgDGR2MLB8vkgxwpa0Sg/ms.jpg", "city": "New York", "review_count": 3, "name": "Chef White's Five Star Grill", "neighborhoods": ["Harlem"], "url": "http://www.yelp.com/biz/chef-whites-five-star-grill-new-york", "longitude": -73.955860999999999, "state": "NY", "stars": 3.5, "latitude": 40.803744000000002, "type": "business"}
{"business_id": "O2jCWIOWb-IhyZGZLTNNoA", "full_address": "2162 8th Ave\nHarlem\nNew York, NY 10026", "schools": ["Columbia University"], "open": true, "categories": ["Chinese", "Restaurants"], "photo_url": "http://s3-media1.ak.yelpcdn.com/assets/2/www/img/924a6444ca6c/gfx/blank_biz_medium.gif", "city": "New York", "review_count": 2, "name": "Peking Kitchen II", "neighborhoods": ["Harlem"], "url": "http://www.yelp.com/biz/peking-kitchen-ii-new-york", "longitude": -73.9549485, "state": "NY", "stars": 4.0, "latitude": 40.804812400000003, "type": "business"}
{"business_id": "2VQDEQuK3xLFNktPBIpmuQ", "full_address": "465 W 125th St\nHarlem\nNew York, NY 10027", "schools": ["Columbia University"], "open": true, "categories": ["Chinese", "Restaurants"], "photo_url": "http://s3-media1.ak.yelpcdn.com/assets/2/www/img/924a6444ca6c/gfx/blank_biz_medium.gif", "city": "New York", "review_count": 6, "name": "New Aroma Chinese Restaurant", "neighborhoods": ["Harlem"], "url": "http://www.yelp.com/biz/new-aroma-chinese-restaurant-new-york", "longitude": -73.955841100000001, "state": "NY", "stars": 3.5, "latitude": 40.813185599999997, "type": "business"}
{"business_id": "v13Ur9Yf2EhvGlvPAaFNeQ", "full_address": "2869 Broadway\nMorningside Heights\nNew York, NY 10025", "schools": ["Columbia University"], "open": true, "categories": ["Seafood", "Mediterranean", "Restaurants"], "photo_url": "http://s3-media4.ak.yelpcdn.com/bphoto/40e8koGLhk9SN2uYGq5dRQ/ms.jpg", "city": "New York", "review_count": 177, "name": "Vareli", "neighborhoods": ["Morningside Heights"], "url": "http://www.yelp.com/biz/vareli-new-york", "longitude": -73.9663939, "state": "NY", "stars": 4.0, "latitude": 40.805219999999998, "type": "business"}
{"business_id": "Say8vUn6wmlb-HMHFsK2Wg", "full_address": "950 Columbus Avenue\nManhattan Valley\nNew York, NY 10025", "schools": ["Columbia University"], "open": false, "categories": ["Cajun/Creole", "Restaurants"], "photo_url": "http://s3-media1.ak.yelpcdn.com/assets/2/www/img/924a6444ca6c/gfx/blank_biz_medium.gif", "city": "New York", "review_count": 3, "name": "Gumbo Cafe", "neighborhoods": ["Manhattan Valley"], "url": "http://www.yelp.com/biz/gumbo-cafe-new-york", "longitude": -73.962482199999997, "state": "NY", "stars": 2.5, "latitude": 40.799843000000003, "type": "business"}
{"business_id": "V-rY0hlPjAghV14jOlVUiQ", "full_address": "1280 Amsterdam Ave\nHarlem\nManhattan, NY 10027", "schools": ["Columbia University"], "open": true, "categories": ["Asian Fusion", "Restaurants"], "photo_url": "http://s3-media1.ak.yelpcdn.com/bphoto/x3SNdNSzIoKqTt1esyVeiw/ms.jpg", "city": "Manhattan", "review_count": 44, "name": "Nikko", "neighborhoods": ["Harlem"], "url": "http://www.yelp.com/biz/nikko-manhattan", "longitude": -73.957753499999995, "state": "NY", "stars": 3.5, "latitude": 40.811346800000003, "type": "business"}
{"business_id": "8uz_6_ogNrpb_MxQnhjZGQ", "full_address": "1011 Columbus Ave\nManhattan Valley\nNew York, NY 10025", "schools": ["Columbia University"], "open": true, "categories": ["Pizza", "Restaurants"], "photo_url": "http://s3-media1.ak.yelpcdn.com/assets/2/www/img/924a6444ca6c/gfx/blank_biz_medium.gif", "city": "New York", "review_count": 35, "name": "Giovanni's Pizzeria", "neighborhoods": ["Manhattan Valley"], "url": "http://www.yelp.com/biz/giovannis-pizzeria-new-york", "longitude": -73.960952800000001, "state": "NY", "stars": 3.0, "latitude": 40.801512199999998, "type": "business"}
{"business_id": "F6ReGpF94EKWzh6dSRVIrQ", "full_address": "2859 Broadway\nMorningside Heights\nNew York, NY 10025", "schools": ["Columbia University"], "open": true, "categories": ["Italian", "Pizza", "Restaurants"], "photo_url": "http://s3-media2.ak.yelpcdn.com/bphoto/tHdSN9toKVASN04a3RDEUQ/ms.jpg", "city": "New York", "review_count": 34, "name": "Famous Famiglia", "neighborhoods": ["Morningside Heights"], "url": "http://www.yelp.com/biz/famous-famiglia-new-york-2", "longitude": -73.966317399999994, "state": "NY", "stars": 3.0, "latitude": 40.8048918, "type": "business"}
{"business_id": "rFscSQwEcsYmQexb1Jqjcw", "full_address": "115th Street and Broadway\nNorthwest Corner\nMorningside Heights\nManhattan, NY 10027", "schools": ["Columbia University"], "open": true, "categories": ["Food Stands", "Halal", "Restaurants"], "photo_url": "http://s3-media2.ak.yelpcdn.com/bphoto/eK90EwI1FuD6bV-sxl1z1Q/ms.jpg", "city": "Manhattan", "review_count": 15, "name": "Hooda's Halal Cart", "neighborhoods": ["Morningside Heights"], "url": "http://www.yelp.com/biz/hoodas-halal-cart-manhattan", "longitude": -73.964298299999996, "state": "NY", "stars": 3.5, "latitude": 40.807305599999999, "type": "business"}
{"business_id": "tx-RvyrgducHwWkz_b6Dqg", "full_address": "1302 Amsterdam Ave\nHarlem\nManhattan, NY 10027", "schools": ["Columbia University"], "open": true, "categories": ["Burgers", "Pizza", "Restaurants"], "photo_url": "http://s3-media1.ak.yelpcdn.com/bphoto/Q8ATH8dZG2sKD22pbs2Nqg/ms.jpg", "city": "Manhattan", "review_count": 3, "name": "Slicebun", "neighborhoods": ["Harlem"], "url": "http://www.yelp.com/biz/slicebun-manhattan", "longitude": -73.957319400000003, "state": "NY", "stars": 2.0, "latitude": 40.811940700000001, "type": "business"}
{"business_id": "cf4ygT87Krgbo9cXvSikVA", "full_address": "3060 Broadway\nMorningside Heights\nNew York, NY 10027", "schools": ["Columbia University"], "open": true, "categories": ["Delis", "Restaurants"], "photo_url": "http://s3-media4.ak.yelpcdn.com/bphoto/ka_k8e4AUXYedT32175wnQ/ms.jpg", "city": "New York", "review_count": 17, "name": "Olive Tree Deli", "neighborhoods": ["Morningside Heights"], "url": "http://www.yelp.com/biz/olive-tree-deli-new-york-2", "longitude": -73.961323699999994, "state": "NY", "stars": 4.0, "latitude": 40.811215900000001, "type": "business"}
{"business_id": "cu5oiIleLVa5eXH6X27KMw", "full_address": "940 Amsterdam Ave\nManhattan Valley\nNew York, NY 10025", "schools": ["Columbia University"], "open": true, "categories": ["Chinese", "Restaurants"], "photo_url": "http://s3-media4.ak.yelpcdn.com/bphoto/rDDFQeoNmi_M9I2gpTFSQQ/ms.jpg", "city": "New York", "review_count": 38, "name": "Wai Lee Chinese Restaurant", "neighborhoods": ["Manhattan Valley"], "url": "http://www.yelp.com/biz/wai-lee-chinese-restaurant-new-york", "longitude": -73.965700400000003, "state": "NY", "stars": 3.5, "latitude": 40.800769500000001, "type": "business"}
{"business_id": "IsqGaD5u47Qx1Ms-VKJ-bQ", "full_address": "1270 Amsterdam Ave\nMorningside Heights\nNew York, NY 10027", "schools": ["Columbia University"], "open": false, "categories": ["Breakfast & Brunch", "American (Traditional)", "Restaurants"], "photo_url": "http://s3-media1.ak.yelpcdn.com/bphoto/XHLLFhQlg6W1CyChQ9-1DA/ms.jpg", "city": "New York", "review_count": 20, "name": "Lyla's Cafe", "neighborhoods": ["Morningside Heights"], "url": "http://www.yelp.com/biz/lylas-cafe-new-york", "longitude": -73.958267000000006, "state": "NY", "stars": 3.5, "latitude": 40.811171999999999, "type": "business"}
{"business_id": "vQaei8xkH8u2W5gHToRcXw", "full_address": "1270 Amsterdam Ave\nMorningside Heights\nNew York, NY 10027", "schools": ["Columbia University"], "open": false, "categories": ["Food", "American (Traditional)", "Ethiopian", "Restaurants"], "photo_url": "http://s3-media2.ak.yelpcdn.com/bphoto/txaTml5x-0d1m9KHki4IeA/ms.jpg", "city": "New York", "review_count": 13, "name": "Elsabet Cafe", "neighborhoods": ["Morningside Heights"], "url": "http://www.yelp.com/biz/elsabet-cafe-new-york", "longitude": -73.958267000000006, "state": "NY", "stars": 3.0, "latitude": 40.811171999999999, "type": "business"}
{"business_id": "pIrSHmLYW6Bdjiz-HHWd1Q", "full_address": "3143 Broadway\nHarlem\nNew York, NY 10027", "schools": ["Columbia University"], "open": true, "categories": ["Italian", "Pizza", "Restaurants"], "photo_url": "http://s3-media4.ak.yelpcdn.com/bphoto/wV79EfltIuKPP2LcOpMvzQ/ms.jpg", "city": "New York", "review_count": 87, "name": "Bettolona", "neighborhoods": ["Harlem"], "url": "http://www.yelp.com/biz/bettolona-new-york", "longitude": -73.959777399999993, "state": "NY", "stars": 4.0, "latitude": 40.814101899999997, "type": "business"}
{"business_id": "UWSVbdWub1ZLzRb9--4-mA", "full_address": "2190 Frederick Douglass Blvd\nHarlem\nManhattan, NY 10026", "schools": ["Columbia University"], "open": true, "categories": ["Seafood", "Restaurants"], "photo_url": "http://s3-media1.ak.yelpcdn.com/assets/2/www/img/924a6444ca6c/gfx/blank_biz_medium.gif", "city": "Manhattan", "review_count": 7, "name": "Harlem Savour of Seafood", "neighborhoods": ["Harlem"], "url": "http://www.yelp.com/biz/harlem-savour-of-seafood-manhattan", "longitude": -73.954201699999999, "state": "NY", "stars": 2.5, "latitude": 40.805772300000001, "type": "business"}
{"business_id": "-JuT_VuVL0OfoY3ccYGy4w", "full_address": "2809 Broadway\nManhattan Valley\nNew York, NY 10025", "schools": ["Columbia University"], "open": false, "categories": ["Caribbean", "Restaurants"], "photo_url": "http://s3-media1.ak.yelpcdn.com/assets/2/www/img/924a6444ca6c/gfx/blank_biz_medium.gif", "city": "New York", "review_count": 3, "name": "La Rosita", "neighborhoods": ["Manhattan Valley"], "url": "http://www.yelp.com/biz/la-rosita-new-york-3", "longitude": -73.967447899999996, "state": "NY", "stars": 3.5, "latitude": 40.803284699999999, "type": "business"}
{"business_id": "fqFre6p7U0VOnrjl8Y1BuQ", "full_address": "1028 Amsterdam Ave\nMorningside Heights\nManhattan, NY 10025", "schools": ["Columbia University"], "open": false, "categories": ["Mexican", "Restaurants"], "photo_url": "http://s3-media1.ak.yelpcdn.com/assets/2/www/img/924a6444ca6c/gfx/blank_biz_medium.gif", "city": "Manhattan", "review_count": 2, "name": "El Ranchero Mexicano", "neighborhoods": ["Morningside Heights"], "url": "http://www.yelp.com/biz/el-ranchero-mexicano-manhattan-2", "longitude": -73.963763700000001, "state": "NY", "stars": 3.0, "latitude": 40.803431199999999, "type": "business"}
{"business_id": "Vf0-szX1DxTVYhpnJCwr9w", "full_address": "2800 Broadway\nManhattan Valley\nManhattan, NY 10025", "schools": ["Columbia University"], "open": true, "categories": ["Diners", "Restaurants"], "photo_url": "http://s3-media3.ak.yelpcdn.com/bphoto/lrXidSs8WG1a7x195F2ksA/ms.jpg", "city": "Manhattan", "review_count": 25, "name": "The Manchester Diner", "neighborhoods": ["Manhattan Valley"], "url": "http://www.yelp.com/biz/the-manchester-diner-manhattan", "longitude": -73.967305999999994, "state": "NY", "stars": 3.0, "latitude": 40.802891500000001, "type": "business"}
{"business_id": "wKfyiP-eNWLSXF6CjWbI_A", "full_address": "354 W 125th St\nHarlem\nManhattan, NY 10027", "schools": ["Columbia University"], "open": true, "categories": ["Fast Food", "Restaurants"], "photo_url": "http://s3-media1.ak.yelpcdn.com/assets/2/www/img/924a6444ca6c/gfx/blank_biz_medium.gif", "city": "Manhattan", "review_count": 6, "name": "McDonald's", "neighborhoods": ["Harlem"], "url": "http://www.yelp.com/biz/mcdonalds-manhattan-4", "longitude": -73.9530618, "state": "NY", "stars": 1.5, "latitude": 40.810935499999999, "type": "business"}
{"business_id": "NRQbIOVnEnsJ8t2xg7W_zg", "full_address": "2850 Broadway\nMorningside Heights\nNew York, NY 10025", "schools": ["Columbia University"], "open": true, "categories": ["Burgers", "Restaurants"], "photo_url": "http://s3-media2.ak.yelpcdn.com/bphoto/JobVJgdvQ1lrZHO-K9bA1g/ms.jpg", "city": "New York", "review_count": 177, "name": "Mel's Burger Bar", "neighborhoods": ["Morningside Heights"], "url": "http://www.yelp.com/biz/mels-burger-bar-new-york", "longitude": -73.966275499999995, "state": "NY", "stars": 3.0, "latitude": 40.804574299999999, "type": "business"}
{"business_id": "NRO1_u7mOE-ffhXE6ShUHw", "full_address": "998 Amsterdam Ave\nManhattan Valley\nNew York, NY 10025", "schools": ["Columbia University"], "open": true, "categories": ["Pubs", "Bars", "American (New)", "Nightlife", "Restaurants"], "photo_url": "http://s3-media4.ak.yelpcdn.com/bphoto/fCWHTqtuzUdJB_hiB3FLvQ/ms.jpg", "city": "New York", "review_count": 17, "name": "the 'dam", "neighborhoods": ["Manhattan Valley"], "url": "http://www.yelp.com/biz/the-dam-new-york", "longitude": -73.964328899999998, "state": "NY", "stars": 4.5, "latitude": 40.802644200000003, "type": "business"}
{"business_id": "4GYc1Ld8r4rGQJKz_Qp07A", "full_address": "366 W 110th St\nManhattan Valley\nNew York, NY 10025", "schools": ["Columbia University"], "open": true, "categories": ["Southern", "Barbeque", "Restaurants"], "photo_url": "http://s3-media3.ak.yelpcdn.com/bphoto/p18qYkurcl2cGsUXWKgPLQ/ms.jpg", "city": "New York", "review_count": 172, "name": "Miss Mamie's Spoonbread Too", "neighborhoods": ["Manhattan Valley"], "url": "http://www.yelp.com/biz/miss-mamies-spoonbread-too-new-york", "longitude": -73.960858999999999, "state": "NY", "stars": 3.5, "latitude": 40.801462000000001, "type": "business"}
{"business_id": "TwwaezIakfJLmMvw9ChM_A", "full_address": "3143 Broadway\nHarlem\nNew York, NY 10027", "schools": ["Columbia University"], "open": false, "categories": ["American (New)", "Restaurants"], "photo_url": "http://s3-media2.ak.yelpcdn.com/bphoto/aqlwnlbBUjOJKbjg2O9yBg/ms.jpg", "city": "New York", "review_count": 6, "name": "Stop 125", "neighborhoods": ["Harlem"], "url": "http://www.yelp.com/biz/stop-125-new-york", "longitude": -73.959849000000006, "state": "NY", "stars": 3.0, "latitude": 40.814231999999997, "type": "business"}
{"business_id": "wvl4-g3MGtDICRzA0UHPLA", "full_address": "3143 Broadway\nHarlem\nNew York City, NY 10027", "schools": ["Columbia University"], "open": false, "categories": ["Thai", "Restaurants"], "photo_url": "http://s3-media1.ak.yelpcdn.com/assets/2/www/img/924a6444ca6c/gfx/blank_biz_medium.gif", "city": "New York City", "review_count": 4, "name": "Blue Angel", "neighborhoods": ["Harlem"], "url": "http://www.yelp.com/biz/blue-angel-new-york-city", "longitude": -73.959777399999993, "state": "NY", "stars": 4.5, "latitude": 40.814101899999997, "type": "business"}
{"business_id": "PBYypuk9DN-ccqrfYEJ9JA", "full_address": "2955 Broadway\nMorningside Heights\nNew York, NY 10027", "schools": ["Columbia University"], "open": true, "categories": ["Japanese", "Restaurants"], "photo_url": "http://s3-media4.ak.yelpcdn.com/bphoto/on7X_pqZYeUDwoxCFhmA6w/ms.jpg", "city": "New York", "review_count": 114, "name": "Vine: Sushi & Sake", "neighborhoods": ["Morningside Heights"], "url": "http://www.yelp.com/biz/vine-sushi-and-sake-new-york", "longitude": -73.964158800000007, "state": "NY", "stars": 2.5, "latitude": 40.807837800000001, "type": "business"}
{"business_id": "l9OMQ7JKxM5ues3nKEGwcg", "full_address": "2950 Broadway\nColumbia University, School of Journalism\nMorningside Heights\nManhattan, NY 10027", "schools": ["Columbia University"], "open": true, "categories": ["Sandwiches", "Restaurants"], "photo_url": "http://s3-media4.ak.yelpcdn.com/bphoto/V5Odo_KTaw2pjBJFCgIu7w/ms.jpg", "city": "Manhattan", "review_count": 20, "name": "Brad's", "neighborhoods": ["Morningside Heights"], "url": "http://www.yelp.com/biz/brads-manhattan", "longitude": -73.963543999999999, "state": "NY", "stars": 3.0, "latitude": 40.807442999999999, "type": "business"}
{"business_id": "3uJAt1EHG0x9pz_c91AHuQ", "full_address": "3163 Broadway\nHarlem\nNew York, NY 10027", "schools": ["Columbia University"], "open": true, "categories": ["Chinese", "Restaurants"], "photo_url": "http://s3-media1.ak.yelpcdn.com/assets/2/www/img/924a6444ca6c/gfx/blank_biz_medium.gif", "city": "New York", "review_count": 10, "name": "Peking Garden", "neighborhoods": ["Harlem"], "url": "http://www.yelp.com/biz/peking-garden-new-york-2", "longitude": -73.959148900000002, "state": "NY", "stars": 3.0, "latitude": 40.814950799999998, "type": "business"}
{"business_id": "6nOxwnuN0ZwLX3h3JYSJnA", "full_address": "2880 Broadway\nMorningside Heights\nNew York, NY 10025", "schools": ["Columbia University"], "open": true, "categories": ["Diners", "Restaurants"], "photo_url": "http://s3-media4.ak.yelpcdn.com/bphoto/JGBvThj4xQNqn092T8-DWg/ms.jpg", "city": "New York", "review_count": 257, "name": "Tom's Restaurant", "neighborhoods": ["Morningside Heights"], "url": "http://www.yelp.com/biz/toms-restaurant-new-york", "longitude": -73.965435900000003, "state": "NY", "stars": 2.5, "latitude": 40.805422399999998, "type": "business"}
{"business_id": "P2g9XTX11wuEqtlLLqWfig", "full_address": "W 115th St and Broadway\nMorningside Heights\nManhattan, NY 10027", "schools": ["Columbia University"], "open": true, "categories": ["Food", "Street Vendors", "Indian", "Pakistani", "Restaurants"], "photo_url": "http://s3-media4.ak.yelpcdn.com/bphoto/5Bs3VmZ1TxC7dDo5B1XvLA/ms.jpg", "city": "Manhattan", "review_count": 2, "name": "Vegenation", "neighborhoods": ["Morningside Heights"], "url": "http://www.yelp.com/biz/vegenation-manhattan", "longitude": -73.964472499999999, "state": "NY", "stars": 3.0, "latitude": 40.807381800000002, "type": "business"}
{"business_id": "HC9E8-yBfMKkJTTvelRLyw", "full_address": "990 Amsterdam Ave\nManhattan Valley\nNew York, NY 10025", "schools": ["Columbia University"], "open": true, "categories": ["Chinese", "Restaurants"], "photo_url": "http://s3-media4.ak.yelpcdn.com/bphoto/03sfGXXcfRdPoO7JExSyvg/ms.jpg", "city": "New York", "review_count": 13, "name": "Concord Garden Restaurant", "neighborhoods": ["Manhattan Valley"], "url": "http://www.yelp.com/biz/concord-garden-restaurant-new-york", "longitude": -73.9645826, "state": "NY", "stars": 2.5, "latitude": 40.802300199999998, "type": "business"}
{"business_id": "FM2VxaMmkRv9emBQRAEKsA", "full_address": "1302 Amsterdam Ave\nHarlem\nNew York, NY 10027", "schools": ["Columbia University"], "open": true, "categories": ["Pizza", "Restaurants"], "photo_url": "http://s3-media1.ak.yelpcdn.com/assets/2/www/img/924a6444ca6c/gfx/blank_biz_medium.gif", "city": "New York", "review_count": 9, "name": "Firehouse Pizza", "neighborhoods": ["Harlem"], "url": "http://www.yelp.com/biz/firehouse-pizza-new-york", "longitude": -73.957319400000003, "state": "NY", "stars": 3.0, "latitude": 40.811940700000001, "type": "business"}
{"business_id": "froxnvO6lVnzrTBS4p_W_g", "full_address": "2847 Broadway\nMorningside Heights\nNew York, NY 10025", "schools": ["Columbia University"], "open": true, "categories": ["Burgers", "Restaurants"], "photo_url": "http://s3-media4.ak.yelpcdn.com/bphoto/h97k9B6yOp5BE2miwTvV1w/ms.jpg", "city": "New York", "review_count": 40, "name": "Five Guys Burgers and Fries", "neighborhoods": ["Morningside Heights"], "url": "http://www.yelp.com/biz/five-guys-burgers-and-fries-new-york-7", "longitude": -73.966536700000006, "state": "NY", "stars": 3.0, "latitude": 40.804585299999999, "type": "business"}
{"business_id": "8fDhtPpDAnFN44LVUIe3qQ", "full_address": "2113 Frederick Douglass Blvd\nHarlem\nHarlem, NY 10026", "schools": ["Columbia University"], "open": false, "categories": ["Seafood", "Restaurants"], "photo_url": "http://s3-media2.ak.yelpcdn.com/bphoto/62jUjpCicoHy94H0_lY94w/ms.jpg", "city": "Harlem", "review_count": 22, "name": "Questan's", "neighborhoods": ["Harlem"], "url": "http://www.yelp.com/biz/questans-harlem", "longitude": -73.956221600000006, "state": "NY", "stars": 3.0, "latitude": 40.803283399999998, "type": "business"}
{"business_id": "qBKcTxYgQzIdIlEYqv3qJg", "full_address": "1343 Amsterdam Ave\nHarlem\nNew York, NY 10027", "schools": ["Columbia University"], "open": false, "categories": ["Delis", "Pizza", "Restaurants"], "photo_url": "http://s3-media1.ak.yelpcdn.com/assets/2/www/img/924a6444ca6c/gfx/blank_biz_medium.gif", "city": "New York", "review_count": 4, "name": "Amsterdam Pizza & Restaurant", "neighborhoods": ["Harlem"], "url": "http://www.yelp.com/biz/amsterdam-pizza-and-restaurant-new-york", "longitude": -73.956071300000005, "state": "NY", "stars": 4.5, "latitude": 40.813375299999997, "type": "business"}
{"business_id": "sqPb2P93GGE1IHEdASLXvw", "full_address": "1028 Amsterdam Ave\nMorningside Heights\nNew York, NY 10025", "schools": ["Columbia University"], "open": false, "categories": ["Restaurants"], "photo_url": "http://s3-media1.ak.yelpcdn.com/assets/2/www/img/924a6444ca6c/gfx/blank_biz_medium.gif", "city": "New York", "review_count": 14, "name": "Bengal Cafe", "neighborhoods": ["Morningside Heights"], "url": "http://www.yelp.com/biz/bengal-cafe-new-york", "longitude": -73.963738800000002, "state": "NY", "stars": 3.0, "latitude": 40.8034374, "type": "business"}
{"business_id": "ER0c0-cVKhW2O3sjUQawXg", "full_address": "1090 Amsterdam Ave\nMorningside Heights\nNew York, NY 10025", "schools": ["Columbia University"], "open": true, "categories": ["Food", "Coffee & Tea", "Creperies", "Mediterranean", "Restaurants"], "photo_url": "http://s3-media1.ak.yelpcdn.com/bphoto/sJ070J83jUKPS4-jPOZOtg/ms.jpg", "city": "New York", "review_count": 110, "name": "Artopolis", "neighborhoods": ["Morningside Heights"], "url": "http://www.yelp.com/biz/artopolis-new-york", "longitude": -73.962356400000004, "state": "NY", "stars": 3.5, "latitude": 40.805272199999997, "type": "business"}
{"business_id": "BcVx7vnk1CivTpB45SYDUg", "full_address": "2888 Broadway\nMorningside Heights\nNew York, NY 10025", "schools": ["Columbia University"], "open": true, "categories": ["Italian", "Restaurants"], "photo_url": "http://s3-media3.ak.yelpcdn.com/bphoto/0qGKEFzgSBWWYHMEQHqX4g/ms.jpg", "city": "New York", "review_count": 95, "name": "Campo", "neighborhoods": ["Morningside Heights"], "url": "http://www.yelp.com/biz/campo-new-york", "longitude": -73.965279899999999, "state": "NY", "stars": 3.0, "latitude": 40.805601000000003, "type": "business"}
{"business_id": "XZFuFuvKgbsY93ZHX7qsWQ", "full_address": "3153 Broadway\n# 1\nHarlem\nNew York, NY 10027", "schools": ["Columbia University"], "open": true, "categories": ["Delis", "Restaurants"], "photo_url": "http://s3-media1.ak.yelpcdn.com/assets/2/www/img/924a6444ca6c/gfx/blank_biz_medium.gif", "city": "New York", "review_count": 3, "name": "Uni One Gourmet Deli", "neighborhoods": ["Harlem"], "url": "http://www.yelp.com/biz/uni-one-gourmet-deli-new-york", "longitude": -73.959418200000002, "state": "NY", "stars": 2.5, "latitude": 40.8145922, "type": "business"}
{"business_id": "p2zm0HnXZkI2yCAuYLb45g", "full_address": "960 Amsterdam Ave\nManhattan Valley\nNew York, NY 10025", "schools": ["Columbia University"], "open": true, "categories": ["Thai", "Restaurants"], "photo_url": "http://s3-media3.ak.yelpcdn.com/bphoto/BIyttVVt7qgiL00UxU-hdw/ms.jpg", "city": "New York", "review_count": 285, "name": "Thai Market", "neighborhoods": ["Manhattan Valley"], "url": "http://www.yelp.com/biz/thai-market-new-york", "longitude": -73.965433000000004, "state": "NY", "stars": 4.0, "latitude": 40.801375, "type": "business"}
{"business_id": "Qn10NNqKN3f85VdK15VOLw", "full_address": "300 West 110th St\nManhattan Valley\nNew York, NY 10025", "schools": ["Columbia University"], "open": true, "categories": ["Grocery", "Food", "Delis", "Specialty Food", "Convenience Stores", "Fruits & Veggies", "Restaurants"], "photo_url": "http://s3-media2.ak.yelpcdn.com/bphoto/mTSf0GaE3yWTTExFJTtWXw/ms.jpg", "city": "New York", "review_count": 20, "name": "Central Markets", "neighborhoods": ["Manhattan Valley"], "url": "http://www.yelp.com/biz/central-markets-new-york", "longitude": -73.959654, "state": "NY", "stars": 2.5, "latitude": 40.800865999999999, "type": "business"}
{"business_id": "yKPRuBvD3ScCc18QrZ4Y6w", "full_address": "3151 Broadway\nHarlem\nNew York, NY 10027", "schools": ["Columbia University"], "open": true, "categories": ["Mexican", "Restaurants"], "photo_url": "http://s3-media1.ak.yelpcdn.com/bphoto/LsuNFUtpaUCAsB7qbMB5qA/ms.jpg", "city": "New York", "review_count": 41, "name": "El Porton Bar and Restaurant", "neighborhoods": ["Harlem"], "url": "http://www.yelp.com/biz/el-porton-bar-and-restaurant-new-york", "longitude": -73.959630000000004, "state": "NY", "stars": 3.0, "latitude": 40.814534000000002, "type": "business"}
